{
"type": "FeatureCollection",
"name": "USME",
"crs": { "type": "name", "properties": { "name": "urn:ogc:def:crs:OGC:1.3:CRS84" } },
"features": [
{ "type": "Feature", "properties": { "OBJECTID": 155, "LOCCODIGO": "05", "LOCNOMBRE": "USME", "PVODIRECCI": "CARRERA 14 B NO. 76 - 33 SUR", "PVONSITIO": "MARICHUELA", "PVONOMBRE": "COLEGIO DISTRITAL MIGUEL DE CERVANTES SAAVEDRA SEDE A", "PVONPUESTO": 8, "PVOCODIGO": "160010508", "Resultado-NSS_Mesa": 26, "Resultado-NSS_Nombre Candidato": "NICOLAS SANCHEZ SALAZAR", "Resultado-NSS_Total Votos": 1 }, "geometry": { "type": "Point", "coordinates": [ -74.116981875999954, 4.512414104000072 ] } },
{ "type": "Feature", "properties": { "OBJECTID": 158, "LOCCODIGO": "05", "LOCNOMBRE": "USME", "PVODIRECCI": "CALLE 56 A SUR NO. 3 A - 14", "PVONSITIO": "EL DANUBIO AZUL", "PVONOMBRE": "COLEGIO DISTRITAL  FABIO LOZANO SIMONELLI - SEDE B", "PVONPUESTO": 15, "PVOCODIGO": "160010515", "Resultado-NSS_Mesa": 9, "Resultado-NSS_Nombre Candidato": "NICOLAS SANCHEZ SALAZAR", "Resultado-NSS_Total Votos": 1 }, "geometry": { "type": "Point", "coordinates": [ -74.115021438999975, 4.537765720000039 ] } },
{ "type": "Feature", "properties": { "OBJECTID": 159, "LOCCODIGO": "05", "LOCNOMBRE": "USME", "PVODIRECCI": "CALLE 73B SUR NO. 14C - 16", "PVONSITIO": "LA FORTALEZA", "PVONOMBRE": "COLEGIO DISTRITAL EL CORTIJO VIANEY SEDE B", "PVONPUESTO": 17, "PVOCODIGO": "160010517", "Resultado-NSS_Mesa": 5, "Resultado-NSS_Nombre Candidato": "NICOLAS SANCHEZ SALAZAR", "Resultado-NSS_Total Votos": 1 }, "geometry": { "type": "Point", "coordinates": [ -74.119160434999969, 4.517830869000022 ] } },
{ "type": "Feature", "properties": { "OBJECTID": 160, "LOCCODIGO": "05", "LOCNOMBRE": "USME", "PVODIRECCI": "CALLE 81 A SUR NO. 6 - 40 ESTE / TRANSVERSAL 1 ESTE  NO. 85 - 86 SUR *", "PVONSITIO": "EL BOSQUE", "PVONOMBRE": "COLEGIO DISTRITAL OFELIA URIBE DE ACOSTA", "PVONPUESTO": 18, "PVOCODIGO": "160010518", "Resultado-NSS_Mesa": 17, "Resultado-NSS_Nombre Candidato": "NICOLAS SANCHEZ SALAZAR", "Resultado-NSS_Total Votos": 2 }, "geometry": { "type": "Point", "coordinates": [ -74.10311553799994, 4.506018318000031 ] } },
{ "type": "Feature", "properties": { "OBJECTID": 161, "LOCCODIGO": "05", "LOCNOMBRE": "USME", "PVODIRECCI": "CALLE 97 F SUR NO. 6 F - 08 ESTE / CALLE 97 SUR NO. 6 F -  08 ESTE *", "PVONSITIO": "VILLA HERMOSA", "PVONOMBRE": "COLEGIO DISTRITAL VILLA HERMOSA", "PVONPUESTO": 19, "PVOCODIGO": "160010519", "Resultado-NSS_Mesa": 3, "Resultado-NSS_Nombre Candidato": "NICOLAS SANCHEZ SALAZAR", "Resultado-NSS_Total Votos": 1 }, "geometry": { "type": "Point", "coordinates": [ -74.102320477999967, 4.493986247000066 ] } },
{ "type": "Feature", "properties": { "OBJECTID": 162, "LOCCODIGO": "05", "LOCNOMBRE": "USME", "PVODIRECCI": "CALLE 92 SUR NO. 14 D - 87", "PVONSITIO": "VALLES DE CAFAM", "PVONOMBRE": "COLEGIO DISTRITAL ATABANZHA", "PVONPUESTO": 20, "PVOCODIGO": "160010520", "Resultado-NSS_Mesa": 9, "Resultado-NSS_Nombre Candidato": "NICOLAS SANCHEZ SALAZAR", "Resultado-NSS_Total Votos": 1 }, "geometry": { "type": "Point", "coordinates": [ -74.118059415999937, 4.507653595000022 ] } },
{ "type": "Feature", "properties": { "OBJECTID": 464, "LOCCODIGO": "05", "LOCNOMBRE": "USME", "PVODIRECCI": "CALLE 69 D SUR NO. 8 B - 63", "PVONSITIO": "SANTA MARTA", "PVONOMBRE": "COLEGIO DISTRITAL SANTA MARTA", "PVONPUESTO": 4, "PVOCODIGO": "160010504", "Resultado-NSS_Mesa": 5, "Resultado-NSS_Nombre Candidato": "NICOLAS SANCHEZ SALAZAR", "Resultado-NSS_Total Votos": 1 }, "geometry": { "type": "Point", "coordinates": [ -74.115628079999965, 4.525273169000059 ] } },
{ "type": "Feature", "properties": { "OBJECTID": 465, "LOCCODIGO": "05", "LOCNOMBRE": "USME", "PVODIRECCI": "TRANVERSAL 14 T NO. 70 - 49 SUR", "PVONSITIO": "LA AURORA", "PVONOMBRE": "COLEGIO DISTRITAL LA AURORA", "PVONPUESTO": 9, "PVOCODIGO": "160010509", "Resultado-NSS_Mesa": 6, "Resultado-NSS_Nombre Candidato": "NICOLAS SANCHEZ SALAZAR", "Resultado-NSS_Total Votos": 1 }, "geometry": { "type": "Point", "coordinates": [ -74.121139463999953, 4.521681535000027 ] } },
{ "type": "Feature", "properties": { "OBJECTID": 466, "LOCCODIGO": "05", "LOCNOMBRE": "USME", "PVODIRECCI": "CARRERA 1 G ESTE  NO. 84 A - 42 SUR / CARRERA 9 NO. 84 A - 82 SUR *", "PVONSITIO": "CHUNIZA", "PVONOMBRE": "COLEGIO DISTRITAL CHUNIZA", "PVONPUESTO": 10, "PVOCODIGO": "160010510", "Resultado-NSS_Mesa": 9, "Resultado-NSS_Nombre Candidato": "NICOLAS SANCHEZ SALAZAR", "Resultado-NSS_Total Votos": 1 }, "geometry": { "type": "Point", "coordinates": [ -74.111404490999973, 4.505972765000024 ] } },
{ "type": "Feature", "properties": { "OBJECTID": 467, "LOCCODIGO": "05", "LOCNOMBRE": "USME", "PVODIRECCI": "CARRERA 7 NO. 92 A - 31 SUR", "PVONSITIO": "EL VIRREY", "PVONOMBRE": "COLEGIO DISTRITAL EL VIRREY SOLIS", "PVONPUESTO": 14, "PVOCODIGO": "160010514", "Resultado-NSS_Mesa": 16, "Resultado-NSS_Nombre Candidato": "NICOLAS SANCHEZ SALAZAR", "Resultado-NSS_Total Votos": 1 }, "geometry": { "type": "Point", "coordinates": [ -74.11179901, 4.50250233600002 ] } },
{ "type": "Feature", "properties": { "OBJECTID": 469, "LOCCODIGO": "05", "LOCNOMBRE": "USME", "PVODIRECCI": "CALLE 65 SUR NO. 5 - 65", "PVONSITIO": "LA FISCALA", "PVONOMBRE": "COLEGIO DISTRITAL FABIO LOZANO SIMONELLI", "PVONPUESTO": 21, "PVOCODIGO": "160010521", "Resultado-NSS_Mesa": 4, "Resultado-NSS_Nombre Candidato": "NICOLAS SANCHEZ SALAZAR", "Resultado-NSS_Total Votos": 1 }, "geometry": { "type": "Point", "coordinates": [ -74.111727540999937, 4.533770827000069 ] } },
{ "type": "Feature", "properties": { "OBJECTID": 566, "LOCCODIGO": "05", "LOCNOMBRE": "USME", "PVODIRECCI": "CALLE 81 C SUR NO. 8 A - 06", "PVONSITIO": "GRAN YOMASA", "PVONOMBRE": "COLEGIO DISTRITAL GRAN YOMASA", "PVONPUESTO": 26, "PVOCODIGO": "160010526", "Resultado-NSS_Mesa": 8, "Resultado-NSS_Nombre Candidato": "NICOLAS SANCHEZ SALAZAR", "Resultado-NSS_Total Votos": 1 }, "geometry": { "type": "Point", "coordinates": [ -74.109734, 4.508524 ] } },
{ "type": "Feature", "properties": { "OBJECTID": 570, "LOCCODIGO": "05", "LOCNOMBRE": "USME", "PVODIRECCI": "CARRERA 2A NO. 74B - 00 SUR\nCALLE 74B SUR NO. 14H - 25 *", "PVONSITIO": "EL CORTIJO", "PVONOMBRE": "COLEGIO DISTRITAL EL CORTIJO VIANEY - SEDE A", "PVONPUESTO": 24, "PVOCODIGO": "160010524", "Resultado-NSS_Mesa": 38, "Resultado-NSS_Nombre Candidato": "NICOLAS SANCHEZ SALAZAR", "Resultado-NSS_Total Votos": 1 }, "geometry": { "type": "Point", "coordinates": [ -74.118943040999966, 4.515102343000024 ] } },
{ "type": "Feature", "properties": { "OBJECTID": 572, "LOCCODIGO": "05", "LOCNOMBRE": "USME", "PVODIRECCI": "CARRERA 11 NO. 65 C - 50 SUR", "PVONSITIO": "PORTAL USME", "PVONOMBRE": "COLEGIO DISTRITAL PAULO FREIRE", "PVONPUESTO": 22, "PVOCODIGO": "160010522", "Resultado-NSS_Mesa": 3, "Resultado-NSS_Nombre Candidato": "NICOLAS SANCHEZ SALAZAR", "Resultado-NSS_Total Votos": 1 }, "geometry": { "type": "Point", "coordinates": [ -74.117002274999948, 4.532631466000055 ] } },
{ "type": "Feature", "properties": { "OBJECTID": 714, "LOCCODIGO": "05", "LOCNOMBRE": "USME", "PVODIRECCI": "CALLE 104 SUR  NO. 14 - 90", "PVONSITIO": "BRAZUELOS", "PVONOMBRE": "COLEGIO DISTRITAL BRAZUELOS", "PVONPUESTO": 35, "PVOCODIGO": "160010535", "Resultado-NSS_Mesa": 6, "Resultado-NSS_Nombre Candidato": "NICOLAS SANCHEZ SALAZAR", "Resultado-NSS_Total Votos": 1 }, "geometry": { "type": "Point", "coordinates": [ -74.119873998999935, 4.49494885200005 ] } }
]
}
