{
"type": "FeatureCollection",
"name": "pvo",
"crs": { "type": "name", "properties": { "name": "urn:ogc:def:crs:OGC:1.3:CRS84" } },
"features": [
{ "type": "Feature", "properties": { "OBJECTID": 1, "LOCCODIGO": "09", "LOCNOMBRE": "Fontibon", "PVODIRECCI": "Carrera 101 No. 23 - 42", "PVONSITIO": "Veracruz", "PVONOMBRE": "Colegio Distrital República de Costa Rica - Sede C", "PVONPUESTO": 7, "PVOCODIGO": "160010907", "PVONPUES_1": "7" }, "geometry": { "type": "Point", "coordinates": [ -74.137709417999986, 4.679446399000028 ] } },
{ "type": "Feature", "properties": { "OBJECTID": 2, "LOCCODIGO": "09", "LOCNOMBRE": "Fontibon", "PVODIRECCI": "Calle 25 B No. 81 - 41 \/ Carrera 81C No. 24D 60 *", "PVONSITIO": "Modelia Sur", "PVONOMBRE": "Vía Pública Salón Múltiple Comunitario", "PVONPUESTO": 8, "PVOCODIGO": "160010908", "PVONPUES_1": "8" }, "geometry": { "type": "Point", "coordinates": [ -74.11924086099998, 4.670049755000036 ] } },
{ "type": "Feature", "properties": { "OBJECTID": 3, "LOCCODIGO": "09", "LOCNOMBRE": "Fontibon", "PVODIRECCI": "Calle 25 B No. 83 - 14", "PVONSITIO": "Santa Cecilia - Modelia", "PVONOMBRE": "Colegio Distrital Santa Cecilia", "PVONPUESTO": 9, "PVOCODIGO": "160010909", "PVONPUES_1": "9" }, "geometry": { "type": "Point", "coordinates": [ -74.120634584999948, 4.671957665000036 ] } },
{ "type": "Feature", "properties": { "OBJECTID": 4, "LOCCODIGO": "09", "LOCNOMBRE": "Fontibon", "PVODIRECCI": "Carrera 97 No. 16 J - 15", "PVONSITIO": "Centro A", "PVONOMBRE": "Colegio Distrital Rodrigo Arenas Betancourt", "PVONPUESTO": 10, "PVOCODIGO": "160010910", "PVONPUES_1": "10" }, "geometry": { "type": "Point", "coordinates": [ -74.144643477999978, 4.670627619000072 ] } },
{ "type": "Feature", "properties": { "OBJECTID": 5, "LOCCODIGO": "09", "LOCNOMBRE": "Fontibon", "PVODIRECCI": "Calle 16 F BIS No. 102 - 70", "PVONSITIO": "La Laguna", "PVONOMBRE": "Colegio Distrital Pablo Neruda", "PVONPUESTO": 11, "PVOCODIGO": "160010911", "PVONPUES_1": "11" }, "geometry": { "type": "Point", "coordinates": [ -74.149392451999972, 4.672245606000047 ] } },
{ "type": "Feature", "properties": { "OBJECTID": 6, "LOCCODIGO": "09", "LOCNOMBRE": "Fontibon", "PVODIRECCI": "Carrera 114 No. 17 C - 07", "PVONSITIO": "Batavia", "PVONOMBRE": "Concentración Escolar Batavia", "PVONPUESTO": 12, "PVOCODIGO": "160010912", "PVONPUES_1": "12" }, "geometry": { "type": "Point", "coordinates": [ -74.153003240999965, 4.682683578000024 ] } },
{ "type": "Feature", "properties": { "OBJECTID": 7, "LOCCODIGO": "09", "LOCNOMBRE": "Fontibon", "PVODIRECCI": "Carrera 104 B No. 22 J - 15 \/ Calle 23 No. 104 B - 15", "PVONSITIO": "La Giralda", "PVONOMBRE": "Subdirección de Integración Social", "PVONPUESTO": 13, "PVOCODIGO": "160010913", "PVONPUES_1": "13" }, "geometry": { "type": "Point", "coordinates": [ -74.141734789999987, 4.681725344000029 ] } },
{ "type": "Feature", "properties": { "OBJECTID": 8, "LOCCODIGO": "09", "LOCNOMBRE": "Fontibon", "PVODIRECCI": "Calle 25 C Bis B No 96 - 56", "PVONSITIO": "Puerta de Teja", "PVONOMBRE": "Colegio Distrital Costa Rica - Sede C", "PVONPUESTO": 14, "PVOCODIGO": "160010914", "PVONPUES_1": "14" }, "geometry": { "type": "Point", "coordinates": [ -74.12699896, 4.682179560000066 ] } },
{ "type": "Feature", "properties": { "OBJECTID": 9, "LOCCODIGO": "09", "LOCNOMBRE": "Fontibon", "PVODIRECCI": "Carrera 72 A No. 23 - 55", "PVONSITIO": "Tres Elefantes - La Esperanza", "PVONOMBRE": "Parqueadero Almacén Los Tres Elefantes", "PVONPUESTO": 16, "PVOCODIGO": "160010916", "PVONPUES_1": "16" }, "geometry": { "type": "Point", "coordinates": [ -74.118345972999975, 4.660055099000033 ] } },
{ "type": "Feature", "properties": { "OBJECTID": 10, "LOCCODIGO": "09", "LOCNOMBRE": "Fontibon", "PVODIRECCI": "Carrera 137 A No. 17 D - 31", "PVONSITIO": "Puente Grande", "PVONOMBRE": "Liceo Juvenil Moravia", "PVONPUESTO": 17, "PVOCODIGO": "160010917", "PVONPUES_1": "17" }, "geometry": { "type": "Point", "coordinates": [ -74.168116397999938, 4.697663889000069 ] } },
{ "type": "Feature", "properties": { "OBJECTID": 11, "LOCCODIGO": "09", "LOCNOMBRE": "Fontibon", "PVODIRECCI": "Calle 14 A No. 108 - 78", "PVONSITIO": "Zona Franca", "PVONOMBRE": "Colegio Distrital Carlo Federici", "PVONPUESTO": 18, "PVOCODIGO": "160010918", "PVONPUES_1": "18" }, "geometry": { "type": "Point", "coordinates": [ -74.159657630999959, 4.671739569000067 ] } },
{ "type": "Feature", "properties": { "OBJECTID": 12, "LOCCODIGO": "09", "LOCNOMBRE": "Fontibon", "PVODIRECCI": "Calle 14 B No. 119 A - 17", "PVONSITIO": "Recodo", "PVONOMBRE": "Salón Social Conjunto Residencial Fontibón Reservado", "PVONPUESTO": 19, "PVOCODIGO": "160010919", "PVONPUES_1": "19" }, "geometry": { "type": "Point", "coordinates": [ -74.166137869999943, 4.680477448000033 ] } },
{ "type": "Feature", "properties": { "OBJECTID": 13, "LOCCODIGO": "10", "LOCNOMBRE": "Engativá", "PVODIRECCI": "Calle 71 No. 75 - 11", "PVONSITIO": "Boyacá", "PVONOMBRE": "Colegio Distrital Manuela Ayala de Gaitán - Sede A", "PVONPUESTO": 1, "PVOCODIGO": "160011001", "PVONPUES_1": "1" }, "geometry": { "type": "Point", "coordinates": [ -74.099528891999967, 4.68813907200007 ] } },
{ "type": "Feature", "properties": { "OBJECTID": 14, "LOCCODIGO": "10", "LOCNOMBRE": "Engativá", "PVODIRECCI": "Carrera 123 No. 65 A - 03 \/ Calle 65A No. 123 - 38", "PVONSITIO": "Engativá", "PVONOMBRE": "Colegio Distrital General Santander", "PVONPUESTO": 2, "PVOCODIGO": "160011002", "PVONPUES_1": "2" }, "geometry": { "type": "Point", "coordinates": [ -74.140958240999964, 4.716288231000021 ] } },
{ "type": "Feature", "properties": { "OBJECTID": 15, "LOCCODIGO": "10", "LOCNOMBRE": "Engativá", "PVODIRECCI": "Diagonal 44 No. 69 - 96", "PVONSITIO": "Normandía", "PVONOMBRE": "Colegio Privado Instituto Técnico Industrial Centro Don Bosco", "PVONPUESTO": 3, "PVOCODIGO": "160011003", "PVONPUES_1": "3" }, "geometry": { "type": "Point", "coordinates": [ -74.107902650999961, 4.661957395000059 ] } },
{ "type": "Feature", "properties": { "OBJECTID": 16, "LOCCODIGO": "10", "LOCNOMBRE": "Engativá", "PVODIRECCI": "Carrera 68 F No 63 B - 02", "PVONSITIO": "Bosque Popular", "PVONOMBRE": "Colegio Distrital Instituto Técnico Industrial Francisco Jose de Caldas - Sede A", "PVONPUESTO": 4, "PVOCODIGO": "160011004", "PVONPUES_1": "4" }, "geometry": { "type": "Point", "coordinates": [ -74.095382603999951, 4.668805920000068 ] } },
{ "type": "Feature", "properties": { "OBJECTID": 17, "LOCCODIGO": "10", "LOCNOMBRE": "Engativá", "PVODIRECCI": "Av. Calle 64 C No. 68 F - 29", "PVONSITIO": "El Gualí", "PVONOMBRE": "Colegio Cafam Básica Primaria", "PVONPUESTO": 5, "PVOCODIGO": "160011005", "PVONPUES_1": "5" }, "geometry": { "type": "Point", "coordinates": [ -74.094354056999975, 4.671215577000055 ] } },
{ "type": "Feature", "properties": { "OBJECTID": 18, "LOCCODIGO": "10", "LOCNOMBRE": "Engativá", "PVODIRECCI": "Avenida Boyacá No. 64 H - 39 \/ Avenida Carrera 72 No. 64 H - 39", "PVONSITIO": "El Luján", "PVONOMBRE": "Colegio Distrital Robert Kennedy - Sede A", "PVONPUESTO": 6, "PVOCODIGO": "160011006", "PVONPUES_1": "6" }, "geometry": { "type": "Point", "coordinates": [ -74.101488696999979, 4.678894774000071 ] } },
{ "type": "Feature", "properties": { "OBJECTID": 19, "LOCCODIGO": "10", "LOCNOMBRE": "Engativá", "PVODIRECCI": "Calle 64 C No. 76 - 23 \/ Calle 64 C No. 76 - 43 *", "PVONSITIO": "Villaluz", "PVONOMBRE": "Gimnasio Los Alerces", "PVONPUESTO": 7, "PVOCODIGO": "160011007", "PVONPUES_1": "7" }, "geometry": { "type": "Point", "coordinates": [ -74.106432126999948, 4.68078184500007 ] } },
{ "type": "Feature", "properties": { "OBJECTID": 20, "LOCCODIGO": "10", "LOCNOMBRE": "Engativá", "PVODIRECCI": "Calle 66 A No. 97 A - 15", "PVONSITIO": "Los Alamos", "PVONOMBRE": "Colegio Cooperativo Los Álamos - \"COALAMOS\"", "PVONPUESTO": 8, "PVOCODIGO": "160011008", "PVONPUES_1": "8" }, "geometry": { "type": "Point", "coordinates": [ -74.119787948999942, 4.69570563000002 ] } },
{ "type": "Feature", "properties": { "OBJECTID": 21, "LOCCODIGO": "10", "LOCNOMBRE": "Engativá", "PVODIRECCI": "Calle 72 F No. 114 - 51", "PVONSITIO": "Villas de Granada", "PVONOMBRE": "Colegio Distrital Los Cerezos", "PVONPUESTO": 10, "PVOCODIGO": "160011010", "PVONPUES_1": "10" }, "geometry": { "type": "Point", "coordinates": [ -74.129719199999954, 4.716057361000026 ] } },
{ "type": "Feature", "properties": { "OBJECTID": 22, "LOCCODIGO": "10", "LOCNOMBRE": "Engativá", "PVODIRECCI": "Carrera 107 B No. 74 B - 31", "PVONSITIO": "Garces Navas", "PVONOMBRE": "Colegio Distrital Nueva Constitución", "PVONPUESTO": 11, "PVOCODIGO": "160011011", "PVONPUES_1": "11" }, "geometry": { "type": "Point", "coordinates": [ -74.122072043999935, 4.711136510000074 ] } },
{ "type": "Feature", "properties": { "OBJECTID": 23, "LOCCODIGO": "10", "LOCNOMBRE": "Engativá", "PVODIRECCI": "Transversal 100A No. 80A - 20\n \/ Avenida Calle 80  No. 100 - 50 *", "PVONSITIO": "Bochica", "PVONOMBRE": "Centro Comercial Portal 80", "PVONPUESTO": 12, "PVOCODIGO": "160011012", "PVONPUES_1": "12" }, "geometry": { "type": "Point", "coordinates": [ -74.112162290999947, 4.710570740000037 ] } },
{ "type": "Feature", "properties": { "OBJECTID": 24, "LOCCODIGO": "10", "LOCNOMBRE": "Engativá", "PVODIRECCI": "Carrera 104 A No. 76 B - 09", "PVONSITIO": "Los Alamos Norte", "PVONOMBRE": "Colegio Distrital Garces Navas Sede A", "PVONPUESTO": 13, "PVOCODIGO": "160011013", "PVONPUES_1": "13" }, "geometry": { "type": "Point", "coordinates": [ -74.117370522999977, 4.710317149000048 ] } },
{ "type": "Feature", "properties": { "OBJECTID": 25, "LOCCODIGO": "10", "LOCNOMBRE": "Engativá", "PVODIRECCI": "Calle 70 A No. 94 - 38", "PVONSITIO": "La Salina", "PVONOMBRE": "Colegio Distrital Florida Blanca - Sede A", "PVONPUESTO": 14, "PVOCODIGO": "160011014", "PVONPUES_1": "14" }, "geometry": { "type": "Point", "coordinates": [ -74.114021233999949, 4.697956262000048 ] } },
{ "type": "Feature", "properties": { "OBJECTID": 26, "LOCCODIGO": "11", "LOCNOMBRE": "Suba", "PVODIRECCI": "Avenida Calle 127 No. 58 - 58", "PVONSITIO": "Centro Comercial Bulevar Niza", "PVONOMBRE": "Parqueadero Centro Comercial Bulevar Niza", "PVONPUESTO": 11, "PVOCODIGO": "160011111", "PVONPUES_1": "11" }, "geometry": { "type": "Point", "coordinates": [ -74.071679531999962, 4.711594588000025 ] } },
{ "type": "Feature", "properties": { "OBJECTID": 27, "LOCCODIGO": "11", "LOCNOMBRE": "Suba", "PVODIRECCI": "Transversal 126 No. 134 - 88", "PVONSITIO": "La Gaitana Sede A - IED", "PVONOMBRE": "Colegio Distrital La Gaitana", "PVONPUESTO": 25, "PVOCODIGO": "160011125", "PVONPUES_1": "25" }, "geometry": { "type": "Point", "coordinates": [ -74.108522316999938, 4.742176888000074 ] } },
{ "type": "Feature", "properties": { "OBJECTID": 28, "LOCCODIGO": "12", "LOCNOMBRE": "Barrios Unidos", "PVODIRECCI": "Carrera 27 C No. 71 - 80", "PVONSITIO": "Los Alcázares", "PVONOMBRE": "Colegio San Felipe Neri", "PVONPUESTO": 15, "PVOCODIGO": "160011215", "PVONPUES_1": "15" }, "geometry": { "type": "Point", "coordinates": [ -74.070350578999978, 4.663748039000041 ] } },
{ "type": "Feature", "properties": { "OBJECTID": 29, "LOCCODIGO": "14", "LOCNOMBRE": "Mártires", "PVODIRECCI": "Carrera 19 A Bis No. 1 A - 55  \/   \nCarrera 19 B Bis No. 1 C - 55", "PVONSITIO": "Eduardo Santos", "PVONOMBRE": "Centro Educativo Distrital Eduardo Santos", "PVONPUESTO": 10, "PVOCODIGO": "160011410", "PVONPUES_1": "10" }, "geometry": { "type": "Point", "coordinates": [ -74.093330496999954, 4.594339241000057 ] } },
{ "type": "Feature", "properties": { "OBJECTID": 30, "LOCCODIGO": "15", "LOCNOMBRE": "Antonio Nariño", "PVODIRECCI": "Carrera 10 A Sur No. 3 - 63\n \/ Carrera 10 A No. 3 - 21 Sur *", "PVONSITIO": "Policarpa", "PVONOMBRE": "Colegio Distrital Jaime Pardo Leal", "PVONPUESTO": 1, "PVOCODIGO": "160011501", "PVONPUES_1": "1" }, "geometry": { "type": "Point", "coordinates": [ -74.088220975999945, 4.586603001000071 ] } },
{ "type": "Feature", "properties": { "OBJECTID": 31, "LOCCODIGO": "15", "LOCNOMBRE": "Antonio Nariño", "PVODIRECCI": "Avenida Carrera 30 No. 17 B - 25 Sur\n \/ Avenida Carrera 30 No. 17 - 91 Sur *", "PVONSITIO": "SENA", "PVONOMBRE": "SENA Centro Distrital (San Jorge Central)", "PVONPUESTO": 13, "PVOCODIGO": "160011513", "PVONPUES_1": "13" }, "geometry": { "type": "Point", "coordinates": [ -74.111941310999953, 4.595189787000038 ] } },
{ "type": "Feature", "properties": { "OBJECTID": 32, "LOCCODIGO": "16", "LOCNOMBRE": "Puente Aranda", "PVODIRECCI": "Calle 1 No. 34 B 20 \/ \nCalle 1 B No. 35 - 20 *", "PVONSITIO": "Santa Matilde", "PVONOMBRE": "Colegio Distrital Marco Antonio Carreño - Sede B", "PVONPUESTO": 3, "PVOCODIGO": "160011603", "PVONPUES_1": "3" }, "geometry": { "type": "Point", "coordinates": [ -74.109438843999953, 4.603050434000068 ] } },
{ "type": "Feature", "properties": { "OBJECTID": 33, "LOCCODIGO": "16", "LOCNOMBRE": "Puente Aranda", "PVODIRECCI": "Carrera 32 B No.1 D - 21", "PVONSITIO": "La Asunción", "PVONOMBRE": "Colegio Distrital Marco Antonio Carreño - Sede C", "PVONPUESTO": 4, "PVOCODIGO": "160011604", "PVONPUES_1": "4" }, "geometry": { "type": "Point", "coordinates": [ -74.106819261999988, 4.602694444000065 ] } },
{ "type": "Feature", "properties": { "OBJECTID": 34, "LOCCODIGO": "16", "LOCNOMBRE": "Puente Aranda", "PVODIRECCI": "Carrera 52 D No. 24 - 50 Sur \/ Carrera 52 D No. 24 - 48 Sur", "PVONSITIO": "El Tejar", "PVONOMBRE": "Colegio Distrital Luis Vargas Tejada - Sede B", "PVONPUESTO": 19, "PVOCODIGO": "160011619", "PVONPUES_1": "19" }, "geometry": { "type": "Point", "coordinates": [ -74.127520144999949, 4.60858481300005 ] } },
{ "type": "Feature", "properties": { "OBJECTID": 35, "LOCCODIGO": "17", "LOCNOMBRE": "Candelaria", "PVODIRECCI": "Calle 12D  No. 1A - 09  \/  Calle 12C No. 1A - 24 *", "PVONSITIO": "La Concordia", "PVONOMBRE": "Colegio Distrital La Concordia", "PVONPUESTO": 1, "PVOCODIGO": "160011701", "PVONPUES_1": "1" }, "geometry": { "type": "Point", "coordinates": [ -74.069176631999937, 4.598773004000066 ] } },
{ "type": "Feature", "properties": { "OBJECTID": 36, "LOCCODIGO": "17", "LOCNOMBRE": "Candelaria", "PVODIRECCI": "Carrera 3 Este No. 9 – 77", "PVONSITIO": "Egipto", "PVONOMBRE": "Escuela Nacional de Comercio -  Sede B", "PVONPUESTO": 3, "PVOCODIGO": "160011703", "PVONPUES_1": "3" }, "geometry": { "type": "Point", "coordinates": [ -74.070019438999964, 4.59294339500002 ] } },
{ "type": "Feature", "properties": { "OBJECTID": 37, "LOCCODIGO": "17", "LOCNOMBRE": "Candelaria", "PVODIRECCI": "Calle 6 B No. 5 - 75", "PVONSITIO": "Archivo Distrital", "PVONOMBRE": "Archivo Distrital", "PVONPUESTO": 4, "PVOCODIGO": "160011704", "PVONPUES_1": "4" }, "geometry": { "type": "Point", "coordinates": [ -74.077135345999977, 4.591681989000051 ] } },
{ "type": "Feature", "properties": { "OBJECTID": 38, "LOCCODIGO": "18", "LOCNOMBRE": "Rafael Uribe Uribe", "PVODIRECCI": "Calle 46 Sur No. 27 - 12", "PVONSITIO": "Claret", "PVONOMBRE": "Colegio Distrital Manuel del Socorro Rodríguez - Sede B", "PVONPUESTO": 1, "PVOCODIGO": "160011801", "PVONPUES_1": "1" }, "geometry": { "type": "Point", "coordinates": [ -74.128418069999952, 4.583001399000068 ] } },
{ "type": "Feature", "properties": { "OBJECTID": 39, "LOCCODIGO": "18", "LOCNOMBRE": "Rafael Uribe Uribe", "PVODIRECCI": "Calle 40 Sur No. 26 - 90 Sur \/ \nCalle 41 Sur No. 26 - 44 *", "PVONSITIO": "Inglés", "PVONOMBRE": "Colegio Distrital Restrepo Millán - Sede B", "PVONPUESTO": 2, "PVOCODIGO": "160011802", "PVONPUES_1": "2" }, "geometry": { "type": "Point", "coordinates": [ -74.123415389999934, 4.583322852000038 ] } },
{ "type": "Feature", "properties": { "OBJECTID": 40, "LOCCODIGO": "18", "LOCNOMBRE": "Rafael Uribe Uribe", "PVODIRECCI": "Carrera 13 A No. 26 - 17 Sur \n\/ Carrera 12 F No. 26 - 17 Sur *", "PVONSITIO": "San José", "PVONOMBRE": "Colegio Distrital Gustavo Restrepo - Sedes B y C", "PVONPUESTO": 7, "PVOCODIGO": "160011807", "PVONPUES_1": "7" }, "geometry": { "type": "Point", "coordinates": [ -74.102698224999983, 4.577056372000072 ] } },
{ "type": "Feature", "properties": { "OBJECTID": 41, "LOCCODIGO": "18", "LOCNOMBRE": "Rafael Uribe Uribe", "PVODIRECCI": "Transversal 23 Bis No. 44 - 90 Sur", "PVONSITIO": "Santa Lucía", "PVONOMBRE": "Colegio Distrital Manuel del Socorro Rodríguez - Sede A", "PVONPUESTO": 12, "PVOCODIGO": "160011812", "PVONPUES_1": "12" }, "geometry": { "type": "Point", "coordinates": [ -74.125993637999954, 4.577615822000041 ] } },
{ "type": "Feature", "properties": { "OBJECTID": 42, "LOCCODIGO": "18", "LOCNOMBRE": "Rafael Uribe Uribe", "PVODIRECCI": "Transversal 2 B Bis No. 49 D - 41 Sur", "PVONSITIO": "Palermo Sur", "PVONOMBRE": "Colegio Distrital Palermo Sur", "PVONPUESTO": 23, "PVOCODIGO": "160011823", "PVONPUES_1": "23" }, "geometry": { "type": "Point", "coordinates": [ -74.10971793799996, 4.543099721000033 ] } },
{ "type": "Feature", "properties": { "OBJECTID": 43, "LOCCODIGO": "18", "LOCNOMBRE": "Rafael Uribe Uribe", "PVODIRECCI": "Diagonal 52 A Sur No. 4 P - 10", "PVONSITIO": "Rafael Uribe La Paz", "PVONOMBRE": "Colegio Distrital La Paz", "PVONPUESTO": 27, "PVOCODIGO": "160011827", "PVONPUES_1": "27" }, "geometry": { "type": "Point", "coordinates": [ -74.117282524999951, 4.54371044800007 ] } },
{ "type": "Feature", "properties": { "OBJECTID": 44, "LOCCODIGO": "18", "LOCNOMBRE": "Rafael Uribe Uribe", "PVODIRECCI": "Diagonal 48 Z Sur No. 4 B - 10", "PVONSITIO": "Covivienda del Sur Oriente", "PVONOMBRE": "Colegio Distrital Diana Turbay - Sede A", "PVONPUESTO": 29, "PVOCODIGO": "160011829", "PVONPUES_1": "29" }, "geometry": { "type": "Point", "coordinates": [ -74.110136510999951, 4.54753987600003 ] } },
{ "type": "Feature", "properties": { "OBJECTID": 45, "LOCCODIGO": "18", "LOCNOMBRE": "Rafael Uribe Uribe", "PVODIRECCI": "Diagonal 49 B Bis A Sur No. 1 B - 35 Este", "PVONSITIO": "Salón Comunal La Marqueza", "PVONOMBRE": "Salón Comunal La Marqueza", "PVONPUESTO": 31, "PVOCODIGO": "160011831", "PVONPUES_1": "31" }, "geometry": { "type": "Point", "coordinates": [ -74.106881495999971, 4.542306564000057 ] } },
{ "type": "Feature", "properties": { "OBJECTID": 46, "LOCCODIGO": "18", "LOCNOMBRE": "Rafael Uribe Uribe", "PVODIRECCI": "Transversal 11 A No. 49 D - 12 Sur\n \/ Transversal 11 D No. 49 D - 57 Sur *", "PVONSITIO": "Providencia", "PVONOMBRE": "Colegio Distrital Alfredo Iriarte - Sede C", "PVONPUESTO": 34, "PVOCODIGO": "160011834", "PVONPUES_1": "34" }, "geometry": { "type": "Point", "coordinates": [ -74.120834056999968, 4.56171992000003 ] } },
{ "type": "Feature", "properties": { "OBJECTID": 47, "LOCCODIGO": "19", "LOCNOMBRE": "Ciudad Bolívar", "PVODIRECCI": "Carrera 17 B Bis A No. 67 - 30 Sur\n \/ Carrera 17 B Bis A No. 67 - 48 Sur *", "PVONSITIO": "Lucero del Sur", "PVONOMBRE": "Colegio Distrital León de Greiff", "PVONPUESTO": 1, "PVOCODIGO": "160011901", "PVONPUES_1": "1" }, "geometry": { "type": "Point", "coordinates": [ -74.138419602999988, 4.550661156000047 ] } },
{ "type": "Feature", "properties": { "OBJECTID": 48, "LOCCODIGO": "19", "LOCNOMBRE": "Ciudad Bolívar", "PVODIRECCI": "Calle 81 Sur No. 18 M - 02 \/ \nCalle 81 Sur No. 18 P - 08 *", "PVONSITIO": "El Tesoro", "PVONOMBRE": "Colegio Distrital Bicentenario", "PVONPUESTO": 4, "PVOCODIGO": "160011904", "PVONPUES_1": "4" }, "geometry": { "type": "Point", "coordinates": [ -74.149445137999976, 4.534972583000069 ] } },
{ "type": "Feature", "properties": { "OBJECTID": 49, "LOCCODIGO": "19", "LOCNOMBRE": "Ciudad Bolívar", "PVODIRECCI": "Calle 64 Sur No. 17 - 50 \/ \nCarrera 17 No. 64 - 14 Sur *", "PVONSITIO": "México", "PVONOMBRE": "Colegio Distrital República de México - Sede Principal", "PVONPUESTO": 5, "PVOCODIGO": "160011905", "PVONPUES_1": "5" }, "geometry": { "type": "Point", "coordinates": [ -74.136599549999971, 4.555005582000035 ] } },
{ "type": "Feature", "properties": { "OBJECTID": 50, "LOCCODIGO": "19", "LOCNOMBRE": "Ciudad Bolívar", "PVODIRECCI": "Calle 69 Sur No 18 B - 35", "PVONSITIO": "Lucero Medio", "PVONOMBRE": "Colegio Distrital El Recuerdo - Sede A", "PVONPUESTO": 6, "PVOCODIGO": "160011906", "PVONPUES_1": "6" }, "geometry": { "type": "Point", "coordinates": [ -74.145614602999956, 4.549026850000075 ] } },
{ "type": "Feature", "properties": { "OBJECTID": 51, "LOCCODIGO": "19", "LOCNOMBRE": "Ciudad Bolívar", "PVODIRECCI": "Calle 59 I Sur No. 44 A - 02 \/ \nCalle 59 Sur No 44 A - 09 *", "PVONSITIO": "Arborizadora Baja", "PVONOMBRE": "Colegio Distrital Arborizadora Baja", "PVONPUESTO": 13, "PVOCODIGO": "160011913", "PVONPUES_1": "13" }, "geometry": { "type": "Point", "coordinates": [ -74.151524117999941, 4.575463316000025 ] } },
{ "type": "Feature", "properties": { "OBJECTID": 52, "LOCCODIGO": "19", "LOCNOMBRE": "Ciudad Bolívar", "PVODIRECCI": "Carrera 18 R No. 77 - 16 Sur \/ \nCalle 77 A No. 18 U - 91 Sur\r\n", "PVONSITIO": "Cordillera", "PVONOMBRE": "Colegio Distrital José Jaime Rojas", "PVONPUESTO": 18, "PVOCODIGO": "160011918", "PVONPUES_1": "18" }, "geometry": { "type": "Point", "coordinates": [ -74.149647279999954, 4.539866762000031 ] } },
{ "type": "Feature", "properties": { "OBJECTID": 53, "LOCCODIGO": "19", "LOCNOMBRE": "Ciudad Bolívar", "PVODIRECCI": "Calle 59 A Sur No. 75 B - 75 \nCarrera 75 No. 59 - 45 Sur", "PVONSITIO": "La Estancia", "PVONOMBRE": "Colegio Distrital La Estancia San Isidro", "PVONPUESTO": 20, "PVOCODIGO": "160011920", "PVONPUES_1": "20" }, "geometry": { "type": "Point", "coordinates": [ -74.176364924999973, 4.593077627000071 ] } },
{ "type": "Feature", "properties": { "OBJECTID": 54, "LOCCODIGO": "19", "LOCNOMBRE": "Ciudad Bolívar", "PVODIRECCI": "Carrera 45 C No. 69 D - 15 Sur \nCalle 69 D Sur No. 45 B - 37 *", "PVONSITIO": "Manuela Beltrán", "PVONOMBRE": "Colegio Distrital Paraíso Manuela Beltrán - Sede A", "PVONPUESTO": 23, "PVOCODIGO": "160011923", "PVONPUES_1": "23" }, "geometry": { "type": "Point", "coordinates": [ -74.157477350999955, 4.57256518600002 ] } },
{ "type": "Feature", "properties": { "OBJECTID": 55, "LOCCODIGO": "19", "LOCNOMBRE": "Ciudad Bolívar", "PVODIRECCI": "Calle 70 Sur No. 56 - 11", "PVONSITIO": "Sierra Morena", "PVONOMBRE": "Colegio Distrital CEDIT Ciudad Bolívar", "PVONPUESTO": 24, "PVOCODIGO": "160011924", "PVONPUES_1": "24" }, "geometry": { "type": "Point", "coordinates": [ -74.165623897999978, 4.577678521000053 ] } },
{ "type": "Feature", "properties": { "OBJECTID": 56, "LOCCODIGO": "19", "LOCNOMBRE": "Ciudad Bolívar", "PVODIRECCI": "Calle 62 B Sur No. 77 C - 11 \nCalle 68 B Sur No. 77 A - 07 *", "PVONSITIO": "Santo Domingo", "PVONOMBRE": "Colegio Distrital Sierra Morena -  Sede B", "PVONPUESTO": 26, "PVOCODIGO": "160011926", "PVONPUES_1": "26" }, "geometry": { "type": "Point", "coordinates": [ -74.178939640999943, 4.578844444000026 ] } },
{ "type": "Feature", "properties": { "OBJECTID": 57, "LOCCODIGO": "19", "LOCNOMBRE": "Ciudad Bolívar", "PVODIRECCI": "Carrera 42 No. 72 C - 24 Sur \nCarrera 42 No. 73 A - 10 Sur *", "PVONSITIO": "Arborizadora Alta", "PVONOMBRE": "Colegio Distrital Gimnasio Sabio Caldas", "PVONPUESTO": 29, "PVOCODIGO": "160011929", "PVONPUES_1": "29" }, "geometry": { "type": "Point", "coordinates": [ -74.163723466999954, 4.567857627000024 ] } },
{ "type": "Feature", "properties": { "OBJECTID": 58, "LOCCODIGO": "19", "LOCNOMBRE": "Ciudad Bolívar", "PVODIRECCI": "Carrera 16 C No. 62 - 35 Sur\nCarrera 16 C No. 62 - 81 Sur *", "PVONSITIO": "Meissen", "PVONOMBRE": "Colegio Distrital Guillermo Cano Isaza", "PVONPUESTO": 32, "PVOCODIGO": "160011932", "PVONPUES_1": "32" }, "geometry": { "type": "Point", "coordinates": [ -74.135633457999973, 4.556714753000051 ] } },
{ "type": "Feature", "properties": { "OBJECTID": 59, "LOCCODIGO": "08", "LOCNOMBRE": "Kennedy", "PVODIRECCI": "Carrera 89 No. 26 -03 Sur \/ Carrera 89 No. 26 -01 Sur", "PVONSITIO": "Patios", "PVONOMBRE": "Colegio Distrital Saludcoop Sur", "PVONPUESTO": 58, "PVOCODIGO": "160010858", "PVONPUES_1": "58" }, "geometry": { "type": "Point", "coordinates": [ -74.16378937099995, 4.642366606000053 ] } },
{ "type": "Feature", "properties": { "OBJECTID": 60, "LOCCODIGO": "10", "LOCNOMBRE": "Engativá", "PVODIRECCI": "Carrera 89 No. 68 A - 36\nCarrera 89 No. 68 A - 32 *", "PVONSITIO": "La Florida", "PVONOMBRE": "Colegio Manyanet", "PVONPUESTO": 15, "PVOCODIGO": "160011015", "PVONPUES_1": "15" }, "geometry": { "type": "Point", "coordinates": [ -74.110587966999958, 4.692899556000043 ] } },
{ "type": "Feature", "properties": { "OBJECTID": 61, "LOCCODIGO": "10", "LOCNOMBRE": "Engativá", "PVODIRECCI": "Carrera 78 No. 69 A - 11", "PVONSITIO": "Santa Helenita", "PVONOMBRE": "Colegio Distrital Manuela Ayala de Gaitán - Sede B", "PVONPUESTO": 16, "PVOCODIGO": "160011016", "PVONPUES_1": "16" }, "geometry": { "type": "Point", "coordinates": [ -74.103378608999947, 4.688928773000043 ] } },
{ "type": "Feature", "properties": { "OBJECTID": 62, "LOCCODIGO": "10", "LOCNOMBRE": "Engativá", "PVODIRECCI": "Carrera 70 C Bis No. 71 - 33", "PVONSITIO": "La Europa", "PVONOMBRE": "Colegio Distrital Néstor Forero Alcalá - Sede A", "PVONPUESTO": 17, "PVOCODIGO": "160011017", "PVONPUES_1": "17" }, "geometry": { "type": "Point", "coordinates": [ -74.093574751999938, 4.683808993000071 ] } },
{ "type": "Feature", "properties": { "OBJECTID": 63, "LOCCODIGO": "10", "LOCNOMBRE": "Engativá", "PVODIRECCI": "Carrera 69 C No. 69 - 20", "PVONSITIO": "La Estrada", "PVONOMBRE": "Colegio Distrital República de Colombia - Sede B", "PVONPUESTO": 18, "PVOCODIGO": "160011018", "PVONPUES_1": "18" }, "geometry": { "type": "Point", "coordinates": [ -74.091525795999985, 4.678782291000061 ] } },
{ "type": "Feature", "properties": { "OBJECTID": 64, "LOCCODIGO": "10", "LOCNOMBRE": "Engativá", "PVODIRECCI": "Calle 68  No. 69 - 10", "PVONSITIO": "La Estradita", "PVONOMBRE": "Colegio Distrital República de Colombia - Sede A", "PVONPUESTO": 19, "PVOCODIGO": "160011019", "PVONPUES_1": "19" }, "geometry": { "type": "Point", "coordinates": [ -74.091566360999934, 4.677421343000049 ] } },
{ "type": "Feature", "properties": { "OBJECTID": 65, "LOCCODIGO": "10", "LOCNOMBRE": "Engativá", "PVODIRECCI": "Calle 73 Bis No. 68 G - 27", "PVONSITIO": "Las Ferias", "PVONOMBRE": "Colegio Distrital Naciones Unidas - Sede C", "PVONPUESTO": 20, "PVOCODIGO": "160011020", "PVONPUES_1": "20" }, "geometry": { "type": "Point", "coordinates": [ -74.087162714999977, 4.68068259000006 ] } },
{ "type": "Feature", "properties": { "OBJECTID": 66, "LOCCODIGO": "10", "LOCNOMBRE": "Engativá", "PVODIRECCI": "Calle 78 Bis No. 69T - 45", "PVONSITIO": "Bonanza", "PVONOMBRE": "Colegio Distrital Técnico República de Guatemala", "PVONPUESTO": 21, "PVOCODIGO": "160011021", "PVONPUES_1": "21" }, "geometry": { "type": "Point", "coordinates": [ -74.086852654999973, 4.690132197000025 ] } },
{ "type": "Feature", "properties": { "OBJECTID": 67, "LOCCODIGO": "10", "LOCNOMBRE": "Engativá", "PVODIRECCI": "Calle 74 B No. 73 A - 20", "PVONSITIO": "Santa María del Lago", "PVONOMBRE": "Colegio Distrital Tabora - Sede B", "PVONPUESTO": 22, "PVOCODIGO": "160011022", "PVONPUES_1": "22" }, "geometry": { "type": "Point", "coordinates": [ -74.094701316999988, 4.691661443000044 ] } },
{ "type": "Feature", "properties": { "OBJECTID": 68, "LOCCODIGO": "10", "LOCNOMBRE": "Engativá", "PVODIRECCI": "Carrera 84 No. 75 A - 09", "PVONSITIO": "La Granja", "PVONOMBRE": "Colegio Distrital San José Norte - Sede A", "PVONPUESTO": 23, "PVOCODIGO": "160011023", "PVONPUES_1": "23" }, "geometry": { "type": "Point", "coordinates": [ -74.101807446999942, 4.698713442000042 ] } },
{ "type": "Feature", "properties": { "OBJECTID": 69, "LOCCODIGO": "08", "LOCNOMBRE": "Kennedy", "PVODIRECCI": "Carrera 77 K Bis A No. 50 - 26 Sur", "PVONSITIO": "Perpetuo Socorro", "PVONOMBRE": "Colegio Distrital Villa Rica - Sede A", "PVONPUESTO": 3, "PVOCODIGO": "160010803", "PVONPUES_1": "3" }, "geometry": { "type": "Point", "coordinates": [ -74.167136121999988, 4.605662528000039 ] } },
{ "type": "Feature", "properties": { "OBJECTID": 70, "LOCCODIGO": "08", "LOCNOMBRE": "Kennedy", "PVODIRECCI": "Carrera 79 F No. 46 - 16 Sur", "PVONSITIO": "Casablanca 32", "PVONOMBRE": "Salón Comunal Casablanca 32", "PVONPUESTO": 5, "PVOCODIGO": "160010805", "PVONPUES_1": "5" }, "geometry": { "type": "Point", "coordinates": [ -74.167932603999986, 4.618398016000071 ] } },
{ "type": "Feature", "properties": { "OBJECTID": 71, "LOCCODIGO": "08", "LOCNOMBRE": "Kennedy", "PVODIRECCI": "Calle 47 A Sur No. 82 - 99", "PVONSITIO": "Britalia", "PVONOMBRE": "Colegio Distrital Gran Britalia - Sede B", "PVONPUESTO": 6, "PVOCODIGO": "160010806", "PVONPUES_1": "6" }, "geometry": { "type": "Point", "coordinates": [ -74.173011327999973, 4.625309595000033 ] } },
{ "type": "Feature", "properties": { "OBJECTID": 72, "LOCCODIGO": "08", "LOCNOMBRE": "Kennedy", "PVODIRECCI": "Calle 42 A Sur No. 79 D – 37 \/\r\nCarrera 79 D No. 42 A - 67 Sur", "PVONSITIO": "Gran Colombiano", "PVONOMBRE": "Colegio Distrital San José", "PVONPUESTO": 7, "PVOCODIGO": "160010807", "PVONPUES_1": "7" }, "geometry": { "type": "Point", "coordinates": [ -74.162829612999985, 4.621250330000066 ] } },
{ "type": "Feature", "properties": { "OBJECTID": 73, "LOCCODIGO": "08", "LOCNOMBRE": "Kennedy", "PVODIRECCI": "Calle 41 C Sur No. 78 H - 85", "PVONSITIO": "Los Periodistas", "PVONOMBRE": "Colegio Distrital Los Periodistas", "PVONPUESTO": 8, "PVOCODIGO": "160010808", "PVONPUES_1": "8" }, "geometry": { "type": "Point", "coordinates": [ -74.158323808999967, 4.617388222000045 ] } },
{ "type": "Feature", "properties": { "OBJECTID": 74, "LOCCODIGO": "08", "LOCNOMBRE": "Kennedy", "PVODIRECCI": "Transversal 72 B No. 44 C - 19 Sur", "PVONSITIO": "Carlos Arturo Torres", "PVONOMBRE": "Colegio Distrital República de Finlandia", "PVONPUESTO": 9, "PVOCODIGO": "160010809", "PVONPUES_1": "9" }, "geometry": { "type": "Point", "coordinates": [ -74.146358520999968, 4.599650129000054 ] } },
{ "type": "Feature", "properties": { "OBJECTID": 75, "LOCCODIGO": "08", "LOCNOMBRE": "Kennedy", "PVODIRECCI": "Carrera 72 I No. 42 F - 54 Sur", "PVONSITIO": "La Chucua", "PVONOMBRE": "Colegio Distrital La Chucua", "PVONPUESTO": 10, "PVOCODIGO": "160010810", "PVONPUES_1": "10" }, "geometry": { "type": "Point", "coordinates": [ -74.148547892999943, 4.603639944000065 ] } },
{ "type": "Feature", "properties": { "OBJECTID": 76, "LOCCODIGO": "08", "LOCNOMBRE": "Kennedy", "PVODIRECCI": "Carrera 72 G No. 39 - 99 Sur \/ Calle 39 B Sur No. 72 G - 62*", "PVONSITIO": "Colegio Alfonso López Pumarejo", "PVONOMBRE": "Colegio Distrital Alfonso López", "PVONPUESTO": 11, "PVOCODIGO": "160010811", "PVONPUES_1": "11" }, "geometry": { "type": "Point", "coordinates": [ -74.143843509999954, 4.608288408000021 ] } },
{ "type": "Feature", "properties": { "OBJECTID": 77, "LOCCODIGO": "08", "LOCNOMBRE": "Kennedy", "PVODIRECCI": "Diagonal 41 Sur No. 73 A - 80", "PVONSITIO": "Francisco Miranda", "PVONOMBRE": "Colegio Distrital Francisco Miranda", "PVONPUESTO": 12, "PVOCODIGO": "160010812", "PVONPUES_1": "12" }, "geometry": { "type": "Point", "coordinates": [ -74.154456262999986, 4.612588858000038 ] } },
{ "type": "Feature", "properties": { "OBJECTID": 78, "LOCCODIGO": "08", "LOCNOMBRE": "Kennedy", "PVODIRECCI": "Carrera 73 C Bis No. 38 C - 84 Sur \/ Calle 38C Sur No. 73A  - 93*", "PVONSITIO": "Las Américas Sede A", "PVONOMBRE": "Colegio Distrital Las Américas - Sede A", "PVONPUESTO": 13, "PVOCODIGO": "160010813", "PVONPUES_1": "13" }, "geometry": { "type": "Point", "coordinates": [ -74.150627501999963, 4.616765260000022 ] } },
{ "type": "Feature", "properties": { "OBJECTID": 79, "LOCCODIGO": "08", "LOCNOMBRE": "Kennedy", "PVODIRECCI": "Calle 40 J Sur No. 78 - 08", "PVONSITIO": "Colegio Tom Adams", "PVONOMBRE": "Colegio Distrital Tom Adams", "PVONPUESTO": 14, "PVOCODIGO": "160010814", "PVONPUES_1": "14" }, "geometry": { "type": "Point", "coordinates": [ -74.155645404999973, 4.618288050000046 ] } },
{ "type": "Feature", "properties": { "OBJECTID": 80, "LOCCODIGO": "08", "LOCNOMBRE": "Kennedy", "PVODIRECCI": "Carrera 78 G No. 38 C - 11 Sur", "PVONSITIO": "El Japón", "PVONOMBRE": "Colegio Distrital El Japón", "PVONPUESTO": 16, "PVOCODIGO": "160010816", "PVONPUES_1": "16" }, "geometry": { "type": "Point", "coordinates": [ -74.153517311999963, 4.621697552000057 ] } },
{ "type": "Feature", "properties": { "OBJECTID": 81, "LOCCODIGO": "08", "LOCNOMBRE": "Kennedy", "PVODIRECCI": "Carrera 83 No. 38 B - 12 Sur", "PVONSITIO": "El Saucedal", "PVONOMBRE": "Colegio Distrital La Amistad - Sede B", "PVONPUESTO": 18, "PVOCODIGO": "160010818", "PVONPUES_1": "18" }, "geometry": { "type": "Point", "coordinates": [ -74.16282556699997, 4.633038830000032 ] } },
{ "type": "Feature", "properties": { "OBJECTID": 82, "LOCCODIGO": "08", "LOCNOMBRE": "Kennedy", "PVODIRECCI": "Calle 1 Bis Sur No. 87 - 84", "PVONSITIO": "Patio Bonito", "PVONOMBRE": "Colegio Distrital Manuel Zapata Olivella", "PVONPUESTO": 19, "PVOCODIGO": "160010819", "PVONPUES_1": "19" }, "geometry": { "type": "Point", "coordinates": [ -74.159960421999983, 4.640644361000057 ] } },
{ "type": "Feature", "properties": { "OBJECTID": 83, "LOCCODIGO": "08", "LOCNOMBRE": "Kennedy", "PVODIRECCI": "Calle 35 A Sur No. 78 I - 21\/\r\nCarrera 78 F No. 35 C - 63 Sur *", "PVONSITIO": "Colegio C.E.L.C.O. San Lucas", "PVONOMBRE": "Colegio Privado C.E.L.C.O. San Lucas", "PVONPUESTO": 21, "PVOCODIGO": "160010821", "PVONPUES_1": "21" }, "geometry": { "type": "Point", "coordinates": [ -74.151234823999971, 4.625141868000071 ] } },
{ "type": "Feature", "properties": { "OBJECTID": 84, "LOCCODIGO": "08", "LOCNOMBRE": "Kennedy", "PVODIRECCI": "Calle 35 C Sur No.78 F - 81", "PVONSITIO": "Próspero Pinzón", "PVONOMBRE": "Colegio Próspero Pinzón", "PVONPUESTO": 22, "PVOCODIGO": "160010822", "PVONPUES_1": "22" }, "geometry": { "type": "Point", "coordinates": [ -74.151092539999979, 4.624321243000054 ] } },
{ "type": "Feature", "properties": { "OBJECTID": 85, "LOCCODIGO": "08", "LOCNOMBRE": "Kennedy", "PVODIRECCI": "Carrera 78 No 35 - 30 Sur", "PVONSITIO": "Colegio La Amistad", "PVONOMBRE": "Colegio Distrital La Amistad", "PVONPUESTO": 23, "PVOCODIGO": "160010823", "PVONPUES_1": "23" }, "geometry": { "type": "Point", "coordinates": [ -74.148127645999978, 4.623422550000043 ] } },
{ "type": "Feature", "properties": { "OBJECTID": 86, "LOCCODIGO": "08", "LOCNOMBRE": "Kennedy", "PVODIRECCI": "Carrera 72 L No. 34 - 19 Sur", "PVONSITIO": "Colegio OEA", "PVONOMBRE": "Colegio Distrital OEA", "PVONPUESTO": 25, "PVOCODIGO": "160010825", "PVONPUES_1": "25" }, "geometry": { "type": "Point", "coordinates": [ -74.141458683999986, 4.618158635000043 ] } },
{ "type": "Feature", "properties": { "OBJECTID": 87, "LOCCODIGO": "08", "LOCNOMBRE": "Kennedy", "PVODIRECCI": "Transversal 68 C No. 31 - 26 Sur", "PVONSITIO": "Floralia", "PVONOMBRE": "Salón Comunal Floralia", "PVONPUESTO": 26, "PVOCODIGO": "160010826", "PVONPUES_1": "26" }, "geometry": { "type": "Point", "coordinates": [ -74.132311089999973, 4.608704879000072 ] } },
{ "type": "Feature", "properties": { "OBJECTID": 88, "LOCCODIGO": "08", "LOCNOMBRE": "Kennedy", "PVODIRECCI": "Calle 25 Sur No. 69 C - 34", "PVONSITIO": "Carvajal II - Sede Antonia Santos I", "PVONOMBRE": "Colegio Distrital Antonia Santos", "PVONPUESTO": 27, "PVOCODIGO": "160010827", "PVONPUES_1": "27" }, "geometry": { "type": "Point", "coordinates": [ -74.135471677999988, 4.615321066000035 ] } },
{ "type": "Feature", "properties": { "OBJECTID": 89, "LOCCODIGO": "08", "LOCNOMBRE": "Kennedy", "PVODIRECCI": "Calle 20 Sur No. 68 D - 36", "PVONSITIO": "Villa Adriana", "PVONOMBRE": "Salón Comunal Villa Adriana", "PVONPUESTO": 28, "PVOCODIGO": "160010828", "PVONPUES_1": "28" }, "geometry": { "type": "Point", "coordinates": [ -74.129084711999951, 4.612923953000063 ] } },
{ "type": "Feature", "properties": { "OBJECTID": 90, "LOCCODIGO": "08", "LOCNOMBRE": "Kennedy", "PVODIRECCI": "Carrera 71 C No 3 A - 41", "PVONSITIO": "Superior Americano", "PVONOMBRE": "Colegio Superior Americano", "PVONPUESTO": 29, "PVOCODIGO": "160010829", "PVONPUES_1": "29" }, "geometry": { "type": "Point", "coordinates": [ -74.135905678999961, 4.626186379000046 ] } },
{ "type": "Feature", "properties": { "OBJECTID": 91, "LOCCODIGO": "08", "LOCNOMBRE": "Kennedy", "PVODIRECCI": "Carrera 68 B Bis No. 1 - 09 Sur", "PVONSITIO": "La Floresta Sur", "PVONOMBRE": "Colegio Distrital La Floresta Sur - Sede 1", "PVONPUESTO": 30, "PVOCODIGO": "160010830", "PVONPUES_1": "30" }, "geometry": { "type": "Point", "coordinates": [ -74.127443742999958, 4.620795857000076 ] } },
{ "type": "Feature", "properties": { "OBJECTID": 92, "LOCCODIGO": "08", "LOCNOMBRE": "Kennedy", "PVODIRECCI": "Carrera 69 No. 7 - 90", "PVONSITIO": "Marsella", "PVONOMBRE": "Colegio Distrital Marsella", "PVONPUESTO": 31, "PVOCODIGO": "160010831", "PVONPUES_1": "31" }, "geometry": { "type": "Point", "coordinates": [ -74.127317364999953, 4.632151289000035 ] } },
{ "type": "Feature", "properties": { "OBJECTID": 93, "LOCCODIGO": "08", "LOCNOMBRE": "Kennedy", "PVODIRECCI": "Calle 7 A Bis No. 71 A - 20", "PVONSITIO": "Aloha", "PVONOMBRE": "Salón Comunal Aloha", "PVONPUESTO": 32, "PVOCODIGO": "160010832", "PVONPUES_1": "32" }, "geometry": { "type": "Point", "coordinates": [ -74.133247897999979, 4.632901238000045 ] } },
{ "type": "Feature", "properties": { "OBJECTID": 94, "LOCCODIGO": "08", "LOCNOMBRE": "Kennedy", "PVODIRECCI": "Calle 40 B Sur No. 57 - 26 \/ Carrera 68I No. 39D - 04 Sur *", "PVONSITIO": "Villanueva", "PVONOMBRE": "Colegio Distrital Alfonso López Pumarejo - Sede B", "PVONPUESTO": 36, "PVOCODIGO": "160010836", "PVONPUES_1": "36" }, "geometry": { "type": "Point", "coordinates": [ -74.140975880999974, 4.603200021000021 ] } },
{ "type": "Feature", "properties": { "OBJECTID": 95, "LOCCODIGO": "08", "LOCNOMBRE": "Kennedy", "PVODIRECCI": "Carrera 87 H BIS No. 39 - 23 Sur", "PVONSITIO": "Jairo Aníbal Niño", "PVONOMBRE": "Colegio Distrital Patio Bonito", "PVONPUESTO": 37, "PVOCODIGO": "160010837", "PVONPUES_1": "37" }, "geometry": { "type": "Point", "coordinates": [ -74.166836285999977, 4.636940864000053 ] } },
{ "type": "Feature", "properties": { "OBJECTID": 96, "LOCCODIGO": "08", "LOCNOMBRE": "Kennedy", "PVODIRECCI": "Carrera 80 D No. 48 A - 17 Sur", "PVONSITIO": "Almenar", "PVONOMBRE": "Salón Comunal", "PVONPUESTO": 39, "PVOCODIGO": "160010839", "PVONPUES_1": "39" }, "geometry": { "type": "Point", "coordinates": [ -74.170399480999947, 4.619730318000052 ] } },
{ "type": "Feature", "properties": { "OBJECTID": 97, "LOCCODIGO": "08", "LOCNOMBRE": "Kennedy", "PVODIRECCI": "Calle 37 B Sur No. 68 D - 93", "PVONSITIO": "Colegio Alquería", "PVONOMBRE": "Colegio Distrital Alquería", "PVONPUESTO": 40, "PVOCODIGO": "160010840", "PVONPUES_1": "40" }, "geometry": { "type": "Point", "coordinates": [ -74.136172789999989, 4.604935279000074 ] } },
{ "type": "Feature", "properties": { "OBJECTID": 98, "LOCCODIGO": "08", "LOCNOMBRE": "Kennedy", "PVODIRECCI": "Calle 48 B No. 72 K - 13 Sur", "PVONSITIO": "Boita", "PVONOMBRE": "Salón Comunal Boita 1 Sector", "PVONPUESTO": 41, "PVOCODIGO": "160010841", "PVONPUES_1": "41" }, "geometry": { "type": "Point", "coordinates": [ -74.15258212699996, 4.602362910000068 ] } },
{ "type": "Feature", "properties": { "OBJECTID": 99, "LOCCODIGO": "08", "LOCNOMBRE": "Kennedy", "PVODIRECCI": "Carrera 74 No. 42 G - 52 Sur", "PVONSITIO": "Col de Timiza", "PVONOMBRE": "Col de Timiza", "PVONPUESTO": 42, "PVOCODIGO": "160010842", "PVONPUES_1": "42" }, "geometry": { "type": "Point", "coordinates": [ -74.158550860999981, 4.609839342000043 ] } },
{ "type": "Feature", "properties": { "OBJECTID": 100, "LOCCODIGO": "08", "LOCNOMBRE": "Kennedy", "PVODIRECCI": "Calle 42 F Sur No. 88 A - 25", "PVONSITIO": "Tintalito", "PVONOMBRE": "Colegio Distrital Hernando Durán Dussan", "PVONPUESTO": 43, "PVOCODIGO": "160010843", "PVONPUES_1": "43" }, "geometry": { "type": "Point", "coordinates": [ -74.172208657999988, 4.634596462000047 ] } },
{ "type": "Feature", "properties": { "OBJECTID": 101, "LOCCODIGO": "08", "LOCNOMBRE": "Kennedy", "PVODIRECCI": "Carrera 90 A No. 39 - 12 Sur", "PVONSITIO": "Las Palmeras", "PVONOMBRE": "Colegio Distrital Rodrigo de Triana - Sede B", "PVONPUESTO": 44, "PVOCODIGO": "160010844", "PVONPUES_1": "44" }, "geometry": { "type": "Point", "coordinates": [ -74.169408013999941, 4.640645230000075 ] } },
{ "type": "Feature", "properties": { "OBJECTID": 102, "LOCCODIGO": "08", "LOCNOMBRE": "Kennedy", "PVODIRECCI": "Carrera 93 A No. 42 A - 37 Sur", "PVONSITIO": "Dindalito", "PVONOMBRE": "Colegio Distrital Eduardo Umaña Luna", "PVONPUESTO": 45, "PVOCODIGO": "160010845", "PVONPUES_1": "45" }, "geometry": { "type": "Point", "coordinates": [ -74.174675973999967, 4.641742778000037 ] } },
{ "type": "Feature", "properties": { "OBJECTID": 103, "LOCCODIGO": "08", "LOCNOMBRE": "Kennedy", "PVODIRECCI": "Av. Ciudad de Cali No. 42 B - 51 Sur \/ Avenida Carrera 86 No. 42 B - 51 Sur *", "PVONSITIO": "Milenio Plaza", "PVONOMBRE": "Centro Comercial Milenio Plaza", "PVONPUESTO": 47, "PVOCODIGO": "160010847", "PVONPUES_1": "47" }, "geometry": { "type": "Point", "coordinates": [ -74.168784780999943, 4.630349086000024 ] } },
{ "type": "Feature", "properties": { "OBJECTID": 104, "LOCCODIGO": "08", "LOCNOMBRE": "Kennedy", "PVODIRECCI": "Carrera 82 BIS No. 7 D - 12", "PVONSITIO": "Liceo El Castillo", "PVONOMBRE": "Colegio Privado El Castillo", "PVONPUESTO": 46, "PVOCODIGO": "160010846", "PVONPUES_1": "46" }, "geometry": { "type": "Point", "coordinates": [ -74.149926825999955, 4.643894623000051 ] } },
{ "type": "Feature", "properties": { "OBJECTID": 105, "LOCCODIGO": "08", "LOCNOMBRE": "Kennedy", "PVODIRECCI": "Carrera 87 A No. 6 A - 23 \/  Carrera 88 No. 6A - 28", "PVONSITIO": "Col. Gabriel Betancourt Mejia", "PVONOMBRE": "Colegio Distrital Gabriel Betancourt Mejía", "PVONPUESTO": 48, "PVOCODIGO": "160010848", "PVONPUES_1": "48" }, "geometry": { "type": "Point", "coordinates": [ -74.156530337999982, 4.644541436000054 ] } },
{ "type": "Feature", "properties": { "OBJECTID": 106, "LOCCODIGO": "08", "LOCNOMBRE": "Kennedy", "PVODIRECCI": "Calle 5 A Sur No. 82 - 63 \/ Calle 5 A Sur No. 82 - 01", "PVONSITIO": "María Paz", "PVONOMBRE": "Salón Comunal María Paz", "PVONPUESTO": 49, "PVOCODIGO": "160010849", "PVONPUES_1": "49" }, "geometry": { "type": "Point", "coordinates": [ -74.157967435999979, 4.636868682000056 ] } },
{ "type": "Feature", "properties": { "OBJECTID": 107, "LOCCODIGO": "08", "LOCNOMBRE": "Kennedy", "PVODIRECCI": "Carrera 91 No. 43 - 98 Sur \/ Carrera 90 A No. 46 - 50 Sur *", "PVONSITIO": "Colegio Nelson Mandela", "PVONOMBRE": "Colegio Disitrital Nelson Mandela", "PVONPUESTO": 50, "PVOCODIGO": "160010850", "PVONPUES_1": "50" }, "geometry": { "type": "Point", "coordinates": [ -74.177909681999949, 4.635853713000074 ] } },
{ "type": "Feature", "properties": { "OBJECTID": 108, "LOCCODIGO": "08", "LOCNOMBRE": "Kennedy", "PVODIRECCI": "Calle 56 A Sur No. 78 A - 20", "PVONSITIO": "Colegio Class I.E.D. Sede B", "PVONOMBRE": "Colegio Distrital Class - Sede B Roma", "PVONPUESTO": 52, "PVOCODIGO": "160010852", "PVONPUES_1": "52" }, "geometry": { "type": "Point", "coordinates": [ -74.171202006999977, 4.608893256000044 ] } },
{ "type": "Feature", "properties": { "OBJECTID": 109, "LOCCODIGO": "08", "LOCNOMBRE": "Kennedy", "PVODIRECCI": "Calle 49 Sur No. 78 - 35", "PVONSITIO": "Villa Rica", "PVONOMBRE": "Colegio Distrital Villa Rica - Sede B", "PVONPUESTO": 54, "PVOCODIGO": "160010854", "PVONPUES_1": "54" }, "geometry": { "type": "Point", "coordinates": [ -74.166413582999951, 4.611437642000055 ] } },
{ "type": "Feature", "properties": { "OBJECTID": 110, "LOCCODIGO": "08", "LOCNOMBRE": "Kennedy", "PVODIRECCI": "Transversal 85 A No. 49 - 45 Sur", "PVONSITIO": "Colegio Jaime Garzón", "PVONOMBRE": "Colegio Distrital Jaime Garzón", "PVONPUESTO": 55, "PVOCODIGO": "160010855", "PVONPUES_1": "55" }, "geometry": { "type": "Point", "coordinates": [ -74.175584647999983, 4.625827935000075 ] } },
{ "type": "Feature", "properties": { "OBJECTID": 111, "LOCCODIGO": "08", "LOCNOMBRE": "Kennedy", "PVODIRECCI": "Carrera 84 A No. 57 B - 04 Sur \/ Carrera 84 A No. 57 B - 22 Sur", "PVONSITIO": "Colegio Debora Arango", "PVONOMBRE": "Colegio Distrital Debora Arango Pérez", "PVONPUESTO": 56, "PVOCODIGO": "160010856", "PVONPUES_1": "56" }, "geometry": { "type": "Point", "coordinates": [ -74.183135062999952, 4.617969588000051 ] } },
{ "type": "Feature", "properties": { "OBJECTID": 112, "LOCCODIGO": "09", "LOCNOMBRE": "Fontibon", "PVODIRECCI": "Carrera 99 Calle 17 A Esquina \/ Carrera 99 No. 17A -  62 *", "PVONSITIO": "Fontibón", "PVONOMBRE": "Colegio Parroquial San Pedro Claver", "PVONPUESTO": 1, "PVOCODIGO": "160010901", "PVONPUES_1": "1" }, "geometry": { "type": "Point", "coordinates": [ -74.144505377999963, 4.67263517300006 ] } },
{ "type": "Feature", "properties": { "OBJECTID": 113, "LOCCODIGO": "09", "LOCNOMBRE": "Fontibon", "PVODIRECCI": "Calle 20 D No. 96 G - 51", "PVONSITIO": "Villemar", "PVONOMBRE": "Colegio Distrital Villemar El Carmen", "PVONPUESTO": 2, "PVOCODIGO": "160010902", "PVONPUES_1": "2" }, "geometry": { "type": "Point", "coordinates": [ -74.139184651999983, 4.672594228000037 ] } },
{ "type": "Feature", "properties": { "OBJECTID": 114, "LOCCODIGO": "09", "LOCNOMBRE": "Fontibon", "PVODIRECCI": "Calle 20 No. 82 - 52", "PVONSITIO": "Hayuelos Centro Comercial", "PVONOMBRE": "Centro Comercial Hayuelos", "PVONPUESTO": 3, "PVOCODIGO": "160010903", "PVONPUES_1": "3" }, "geometry": { "type": "Point", "coordinates": [ -74.130546835999951, 4.664203605000068 ] } },
{ "type": "Feature", "properties": { "OBJECTID": 115, "LOCCODIGO": "09", "LOCNOMBRE": "Fontibon", "PVODIRECCI": "Carrera 106 No. 18 - 77", "PVONSITIO": "Belén", "PVONOMBRE": "Colegio Integrado de Fontibón", "PVONPUESTO": 4, "PVOCODIGO": "160010904", "PVONPUES_1": "4" }, "geometry": { "type": "Point", "coordinates": [ -74.147310254999979, 4.678433946000041 ] } },
{ "type": "Feature", "properties": { "OBJECTID": 116, "LOCCODIGO": "09", "LOCNOMBRE": "Fontibon", "PVODIRECCI": "Calle 17 D No. 123 B - 37", "PVONSITIO": "San Pablo La Perla", "PVONOMBRE": "Colegio Distrital Antonio Van Üden", "PVONPUESTO": 5, "PVOCODIGO": "160010905", "PVONPUES_1": "5" }, "geometry": { "type": "Point", "coordinates": [ -74.158871073999933, 4.688993233000076 ] } },
{ "type": "Feature", "properties": { "OBJECTID": 117, "LOCCODIGO": "09", "LOCNOMBRE": "Fontibon", "PVODIRECCI": "Carrera 112 No. 23 - 05", "PVONSITIO": "Versalles", "PVONOMBRE": "Colegio Distrital Internacional", "PVONPUESTO": 6, "PVOCODIGO": "160010906", "PVONPUES_1": "6" }, "geometry": { "type": "Point", "coordinates": [ -74.145235217999982, 4.686837268000033 ] } },
{ "type": "Feature", "properties": { "OBJECTID": 118, "LOCCODIGO": "02", "LOCNOMBRE": "Chapinero", "PVODIRECCI": "Avenida Calle 100  No. 16 - 75", "PVONSITIO": "Chicó Norte", "PVONOMBRE": "Parqueadero", "PVONPUESTO": 1, "PVOCODIGO": "160010201", "PVONPUES_1": "1" }, "geometry": { "type": "Point", "coordinates": [ -74.049654635999957, 4.685075567000069 ] } },
{ "type": "Feature", "properties": { "OBJECTID": 119, "LOCCODIGO": "02", "LOCNOMBRE": "Chapinero", "PVODIRECCI": "Calle 97 No. 10 - 45", "PVONSITIO": "Chicó Reservado", "PVONOMBRE": "Parqueadero Olímpica", "PVONPUESTO": 2, "PVOCODIGO": "160010202", "PVONPUES_1": "2" }, "geometry": { "type": "Point", "coordinates": [ -74.044224657999962, 4.679733713000076 ] } },
{ "type": "Feature", "properties": { "OBJECTID": 120, "LOCCODIGO": "02", "LOCNOMBRE": "Chapinero", "PVODIRECCI": "Calle 86 No. 7 - 40", "PVONSITIO": "Chico Liceo Francés Louis Pasteur", "PVONOMBRE": "Liceo Francés Louis Pasteur", "PVONPUESTO": 3, "PVOCODIGO": "160010203", "PVONPUES_1": "3" }, "geometry": { "type": "Point", "coordinates": [ -74.046773556999938, 4.666711980000059 ] } },
{ "type": "Feature", "properties": { "OBJECTID": 121, "LOCCODIGO": "02", "LOCNOMBRE": "Chapinero", "PVODIRECCI": "Carrera 15 con Calle 85 Esquina", "PVONSITIO": "Antiguo Country Plazoleta Carulla", "PVONOMBRE": "Carulla - Plazoleta", "PVONPUESTO": 4, "PVOCODIGO": "160010204", "PVONPUES_1": "4" }, "geometry": { "type": "Point", "coordinates": [ -74.055684868999947, 4.669904143000053 ] } },
{ "type": "Feature", "properties": { "OBJECTID": 122, "LOCCODIGO": "02", "LOCNOMBRE": "Chapinero", "PVODIRECCI": "Calle 79  No. 11 - 45 \/ Carrera 11 No. 78 - 47", "PVONSITIO": "Universidad EAN", "PVONOMBRE": "Universidad EAN\r\n", "PVONPUESTO": 5, "PVOCODIGO": "160010205", "PVONPUES_1": "5" }, "geometry": { "type": "Point", "coordinates": [ -74.054800252999939, 4.663431077000041 ] } },
{ "type": "Feature", "properties": { "OBJECTID": 123, "LOCCODIGO": "02", "LOCNOMBRE": "Chapinero", "PVODIRECCI": "Calle 74 No. 14 - 14", "PVONSITIO": "Universidad Sergio Arboleda", "PVONOMBRE": "Universidad Sergio Arboleda", "PVONPUESTO": 6, "PVOCODIGO": "160010206", "PVONPUES_1": "6" }, "geometry": { "type": "Point", "coordinates": [ -74.059795788999963, 4.660894645000042 ] } },
{ "type": "Feature", "properties": { "OBJECTID": 124, "LOCCODIGO": "02", "LOCNOMBRE": "Chapinero", "PVODIRECCI": "Calle 72 No. 11 - 86", "PVONSITIO": "Universidad Pedagógica Nacional", "PVONOMBRE": "Universidad Pedagógica Nacional", "PVONPUESTO": 7, "PVOCODIGO": "160010207", "PVONPUES_1": "7" }, "geometry": { "type": "Point", "coordinates": [ -74.059299892999945, 4.657867382000063 ] } },
{ "type": "Feature", "properties": { "OBJECTID": 125, "LOCCODIGO": "02", "LOCNOMBRE": "Chapinero", "PVODIRECCI": "Carrera 13 No. 65 - 10  Entrada Parqueadero", "PVONSITIO": "SENA Calle 65", "PVONOMBRE": "SENA", "PVONPUESTO": 9, "PVOCODIGO": "160010209", "PVONPUES_1": "9" }, "geometry": { "type": "Point", "coordinates": [ -74.062880772999961, 4.65175626000007 ] } },
{ "type": "Feature", "properties": { "OBJECTID": 126, "LOCCODIGO": "02", "LOCNOMBRE": "Chapinero", "PVODIRECCI": "Carrera 9 Bis No. 62 - 43", "PVONSITIO": "Universidad Konrad Lorenz", "PVONOMBRE": "Fundación Universitaria Konrad Lorenz", "PVONPUESTO": 10, "PVOCODIGO": "160010210", "PVONPUES_1": "10" }, "geometry": { "type": "Point", "coordinates": [ -74.061456959999987, 4.64841756200002 ] } },
{ "type": "Feature", "properties": { "OBJECTID": 127, "LOCCODIGO": "02", "LOCNOMBRE": "Chapinero", "PVODIRECCI": "Calle 52 No. 13 - 65", "PVONSITIO": "SENA Calle 52", "PVONOMBRE": "Parqueadero SENA", "PVONPUESTO": 11, "PVOCODIGO": "160010211", "PVONPUES_1": "11" }, "geometry": { "type": "Point", "coordinates": [ -74.066135842999984, 4.639026454000032 ] } },
{ "type": "Feature", "properties": { "OBJECTID": 128, "LOCCODIGO": "02", "LOCNOMBRE": "Chapinero", "PVODIRECCI": "Carrera 9 No. 45 A - 25", "PVONSITIO": "Universidad Piloto", "PVONOMBRE": "Universidad Piloto de Colombia", "PVONPUESTO": 12, "PVOCODIGO": "160010212", "PVONPUES_1": "12" }, "geometry": { "type": "Point", "coordinates": [ -74.065473820999955, 4.632772357000022 ] } },
{ "type": "Feature", "properties": { "OBJECTID": 129, "LOCCODIGO": "02", "LOCNOMBRE": "Chapinero", "PVODIRECCI": "Carrera 5 C Este No. 98 A - 55", "PVONSITIO": "Colegio Campestre Monteverde San Luis", "PVONOMBRE": "Colegio Distrital Campestre Monteverde", "PVONPUESTO": 13, "PVOCODIGO": "160010213", "PVONPUES_1": "13" }, "geometry": { "type": "Point", "coordinates": [ -74.021538951999958, 4.670209741000065 ] } },
{ "type": "Feature", "properties": { "OBJECTID": 130, "LOCCODIGO": "03", "LOCNOMBRE": "Santa Fe", "PVODIRECCI": "Carrera 7 No. 33 - 64", "PVONSITIO": "Camilo Torres", "PVONOMBRE": "Colegio Distrital Externado Camilo Torres", "PVONPUESTO": 1, "PVOCODIGO": "160010301", "PVONPUES_1": "1" }, "geometry": { "type": "Point", "coordinates": [ -74.066585117999978, 4.620288446000075 ] } },
{ "type": "Feature", "properties": { "OBJECTID": 131, "LOCCODIGO": "03", "LOCNOMBRE": "Santa Fe", "PVODIRECCI": "Calle 32 A No. 3 C - 37", "PVONSITIO": "La Perseverancia", "PVONOMBRE": "Colegio Distrital Manuel Elkin Patarroyo", "PVONPUESTO": 2, "PVOCODIGO": "160010302", "PVONPUES_1": "2" }, "geometry": { "type": "Point", "coordinates": [ -74.064504664999959, 4.617777998000065 ] } },
{ "type": "Feature", "properties": { "OBJECTID": 132, "LOCCODIGO": "03", "LOCNOMBRE": "Santa Fe", "PVODIRECCI": "Calle 28 No 5 A - 06", "PVONSITIO": "Policarpa Salavarrieta", "PVONOMBRE": "Colegio Distrital Popicarpa Salavarrieta - Sede A", "PVONPUESTO": 3, "PVOCODIGO": "160010303", "PVONPUES_1": "3" }, "geometry": { "type": "Point", "coordinates": [ -74.067808152999987, 4.614912219000075 ] } },
{ "type": "Feature", "properties": { "OBJECTID": 133, "LOCCODIGO": "03", "LOCNOMBRE": "Santa Fe", "PVODIRECCI": "Calle 13 (Avenida Jiménez) No. 7 - 56", "PVONSITIO": "Palacio San Francisco", "PVONOMBRE": "Palacio San Francisco", "PVONPUESTO": 4, "PVOCODIGO": "160010304", "PVONPUES_1": "4" }, "geometry": { "type": "Point", "coordinates": [ -74.073595440999952, 4.601961525000036 ] } },
{ "type": "Feature", "properties": { "OBJECTID": 134, "LOCCODIGO": "03", "LOCNOMBRE": "Santa Fe", "PVODIRECCI": "Carrera 13 No. 14 - 69", "PVONSITIO": "Facultad De Artes - ASAB", "PVONOMBRE": "Biblioteca Distrital Antonio Nariño", "PVONPUESTO": 5, "PVOCODIGO": "160010305", "PVONPUES_1": "5" }, "geometry": { "type": "Point", "coordinates": [ -74.078370732999986, 4.604598853000027 ] } },
{ "type": "Feature", "properties": { "OBJECTID": 135, "LOCCODIGO": "03", "LOCNOMBRE": "Santa Fe", "PVODIRECCI": "Carrera 7 Este No. 5 - 20", "PVONSITIO": "Los Laches", "PVONOMBRE": "Colegio Distrital Efraín Cañavera - Sede B (Los Pinos)", "PVONPUESTO": 6, "PVOCODIGO": "160010306", "PVONPUES_1": "6" }, "geometry": { "type": "Point", "coordinates": [ -74.066635966999968, 4.587465473000066 ] } },
{ "type": "Feature", "properties": { "OBJECTID": 136, "LOCCODIGO": "03", "LOCNOMBRE": "Santa Fe", "PVODIRECCI": "Carrera 2 No. 4 - 10 \/ 12", "PVONSITIO": "Centro Oriente", "PVONOMBRE": "Centro Comunitario Lourdes", "PVONPUESTO": 7, "PVOCODIGO": "160010307", "PVONPUES_1": "7" }, "geometry": { "type": "Point", "coordinates": [ -74.073944852999944, 4.589504470000065 ] } },
{ "type": "Feature", "properties": { "OBJECTID": 137, "LOCCODIGO": "03", "LOCNOMBRE": "Santa Fe", "PVODIRECCI": "Calle 3 No. 11 B - 40 \/ Carrera 12 No. 3 - 04", "PVONSITIO": "San Bernardo", "PVONOMBRE": "Colegio Distrital Los Ángeles - Sede B (Santa Inés)", "PVONPUESTO": 8, "PVOCODIGO": "160010308", "PVONPUES_1": "8" }, "geometry": { "type": "Point", "coordinates": [ -74.084715578999976, 4.593608135000068 ] } },
{ "type": "Feature", "properties": { "OBJECTID": 138, "LOCCODIGO": "03", "LOCNOMBRE": "Santa Fe", "PVODIRECCI": "Calle 3 No. 9 - 70", "PVONSITIO": "Las Cruces", "PVONOMBRE": "Colegio Distrital Antonio José Uribe", "PVONPUESTO": 9, "PVOCODIGO": "160010309", "PVONPUES_1": "9" }, "geometry": { "type": "Point", "coordinates": [ -74.082254875999979, 4.592220084000076 ] } },
{ "type": "Feature", "properties": { "OBJECTID": 139, "LOCCODIGO": "03", "LOCNOMBRE": "Santa Fe", "PVODIRECCI": "Calle 3 No. 1B - 09 Este  \/  Calle 3 No.2 - 64 Este*", "PVONSITIO": "Girardot", "PVONOMBRE": "Colegio Distrital Jorge Soto del Corral - Sede A", "PVONPUESTO": 10, "PVOCODIGO": "160010310", "PVONPUES_1": "10" }, "geometry": { "type": "Point", "coordinates": [ -74.072996204999981, 4.587580039000045 ] } },
{ "type": "Feature", "properties": { "OBJECTID": 140, "LOCCODIGO": "03", "LOCNOMBRE": "Santa Fe", "PVODIRECCI": "Carrera 12 A No. 7 - 07", "PVONSITIO": "Medicina Legal", "PVONOMBRE": "Antigua Escuela Santa Ines", "PVONPUESTO": 12, "PVOCODIGO": "160010312", "PVONPUES_1": "12" }, "geometry": { "type": "Point", "coordinates": [ -74.08290337699998, 4.597536173000037 ] } },
{ "type": "Feature", "properties": { "OBJECTID": 141, "LOCCODIGO": "03", "LOCNOMBRE": "Santa Fe", "PVODIRECCI": "Calle 21 No. 1 - 20", "PVONSITIO": "Las Aguas", "PVONOMBRE": "Parqueadero primer piso edificio Julio Mario Santo Domingo Universidad de los Andes", "PVONPUESTO": 13, "PVOCODIGO": "160010313", "PVONPUES_1": "13" }, "geometry": { "type": "Point", "coordinates": [ -74.065928600999939, 4.604145636000055 ] } },
{ "type": "Feature", "properties": { "OBJECTID": 142, "LOCCODIGO": "03", "LOCNOMBRE": "Santa Fe", "PVODIRECCI": "Calle 20 No. 4 - 68", "PVONSITIO": "Las Nieves", "PVONOMBRE": "Colegio Distrital República de Argentina - Sede B (Policarpa Salavarrieta)", "PVONPUESTO": 14, "PVOCODIGO": "160010314", "PVONPUES_1": "14" }, "geometry": { "type": "Point", "coordinates": [ -74.069130898999958, 4.605013588000077 ] } },
{ "type": "Feature", "properties": { "OBJECTID": 143, "LOCCODIGO": "04", "LOCNOMBRE": "San Cristóbal", "PVODIRECCI": "Calle 10 A Sur No. 3 A - 61", "PVONSITIO": "Santa Ana Sur", "PVONOMBRE": "Colegio Distrital José Félix Restrepo - Sede B", "PVONPUESTO": 2, "PVOCODIGO": "160010402", "PVONPUES_1": "2" }, "geometry": { "type": "Point", "coordinates": [ -74.084156873999973, 4.577041486000041 ] } },
{ "type": "Feature", "properties": { "OBJECTID": 144, "LOCCODIGO": "04", "LOCNOMBRE": "San Cristóbal", "PVODIRECCI": "Carrera 9 A No. 18 - 74 Sur", "PVONSITIO": "Sosiego", "PVONOMBRE": "Colegio Distrital Rafael Nuñez", "PVONPUESTO": 7, "PVOCODIGO": "160010407", "PVONPUES_1": "7" }, "geometry": { "type": "Point", "coordinates": [ -74.093010117999938, 4.576361586000075 ] } },
{ "type": "Feature", "properties": { "OBJECTID": 145, "LOCCODIGO": "04", "LOCNOMBRE": "San Cristóbal", "PVODIRECCI": "Calle 27 Sur  No. 2 B - 59 \/ Calle 27 A Sur  No. 2 B - 59 *", "PVONSITIO": "Juan del Rizzo", "PVONOMBRE": "Colegio privado Salesiano Juan del Rizzo Sede B", "PVONPUESTO": 8, "PVOCODIGO": "160010408", "PVONPUES_1": "8" }, "geometry": { "type": "Point", "coordinates": [ -74.093225784999959, 4.567028210000046 ] } },
{ "type": "Feature", "properties": { "OBJECTID": 146, "LOCCODIGO": "04", "LOCNOMBRE": "San Cristóbal", "PVODIRECCI": "Calle 31 D Bis Sur  No. 2 - 24 Este \/ Calle 31 D Bis Sur  No. 2 - 25 Este", "PVONSITIO": "Bello Horizonte", "PVONOMBRE": "Colegio Distrital José Castro Martínez - Sede A", "PVONPUESTO": 11, "PVOCODIGO": "160010411", "PVONPUES_1": "11" }, "geometry": { "type": "Point", "coordinates": [ -74.092474532999972, 4.559956495000051 ] } },
{ "type": "Feature", "properties": { "OBJECTID": 147, "LOCCODIGO": "04", "LOCNOMBRE": "San Cristóbal", "PVODIRECCI": "Calle 34 Sur No. 7 A - 88", "PVONSITIO": "San Isidro", "PVONOMBRE": "Colegio Distrital San isidro Sur Oriental - Sede A", "PVONPUESTO": 12, "PVOCODIGO": "160010412", "PVONPUES_1": "12" }, "geometry": { "type": "Point", "coordinates": [ -74.100935862999961, 4.565904587000034 ] } },
{ "type": "Feature", "properties": { "OBJECTID": 148, "LOCCODIGO": "04", "LOCNOMBRE": "San Cristóbal", "PVODIRECCI": "Diagonal 39 Sur  No. 2 - 10 Este   \/  Diagonal 39 Sur No. 2 - 00 Este", "PVONSITIO": "San Martín de Loba Sur", "PVONOMBRE": "Colegio Distrital Juán Evangelista Gómez", "PVONPUESTO": 14, "PVOCODIGO": "160010414", "PVONPUES_1": "14" }, "geometry": { "type": "Point", "coordinates": [ -74.095668845999967, 4.552086761000055 ] } },
{ "type": "Feature", "properties": { "OBJECTID": 149, "LOCCODIGO": "04", "LOCNOMBRE": "San Cristóbal", "PVODIRECCI": "Calle 42 A Sur No. 12 A - 27 Este", "PVONSITIO": "Altamira", "PVONOMBRE": "Colegio Distrital Altamira Sur Oriental - Sede A", "PVONPUESTO": 17, "PVOCODIGO": "160010417", "PVONPUES_1": "17" }, "geometry": { "type": "Point", "coordinates": [ -74.084843961999979, 4.545385692000025 ] } },
{ "type": "Feature", "properties": { "OBJECTID": 150, "LOCCODIGO": "04", "LOCNOMBRE": "San Cristóbal", "PVODIRECCI": "Calle 46 G Sur No. 16 A - 01 Este", "PVONSITIO": "El Quindío", "PVONOMBRE": "Colegio Distrital El Quindío - Sede B", "PVONPUESTO": 18, "PVOCODIGO": "160010418", "PVONPUES_1": "18" }, "geometry": { "type": "Point", "coordinates": [ -74.08281201799997, 4.537394023000047 ] } },
{ "type": "Feature", "properties": { "OBJECTID": 151, "LOCCODIGO": "04", "LOCNOMBRE": "San Cristóbal", "PVODIRECCI": "Calle 70 Sur No. 13 B - 27 Este", "PVONSITIO": "Juan Rey", "PVONOMBRE": "Colegio Distrital Juan Rey - Sede A", "PVONPUESTO": 21, "PVOCODIGO": "160010421", "PVONPUES_1": "21" }, "geometry": { "type": "Point", "coordinates": [ -74.089955803999942, 4.522433833000036 ] } },
{ "type": "Feature", "properties": { "OBJECTID": 152, "LOCCODIGO": "05", "LOCNOMBRE": "Usme", "PVODIRECCI": "Carrera 1 A Este No. 72 - 60 Sur \/ Carrera 12 No. 72 - 60 Sur *", "PVONSITIO": "Santa Librada", "PVONOMBRE": "Colegio Distrital Orlando Fals Borda", "PVONPUESTO": 5, "PVOCODIGO": "160010505", "PVONPUES_1": "5" }, "geometry": { "type": "Point", "coordinates": [ -74.115944540999976, 4.519357661000072 ] } },
{ "type": "Feature", "properties": { "OBJECTID": 153, "LOCCODIGO": "05", "LOCNOMBRE": "Usme", "PVODIRECCI": "Calle 76 A Sur No. 1 D - 59 Este \/ Calle 76 A Sur No. 8 D - 25 *", "PVONSITIO": "Almirante Padilla", "PVONOMBRE": "Colegio Distrital Almirante Padilla", "PVONPUESTO": 6, "PVOCODIGO": "160010506", "PVONPUES_1": "6" }, "geometry": { "type": "Point", "coordinates": [ -74.111903140999971, 4.512266250000039 ] } },
{ "type": "Feature", "properties": { "OBJECTID": 154, "LOCCODIGO": "05", "LOCNOMBRE": "Usme", "PVODIRECCI": "Calle 102 A Sur No. 5 - 06", "PVONSITIO": "Usminia", "PVONOMBRE": "Colegio Distrital Usminia - Sede B", "PVONPUESTO": 7, "PVOCODIGO": "160010507", "PVONPUES_1": "7" }, "geometry": { "type": "Point", "coordinates": [ -74.114487294999947, 4.495438658000069 ] } },
{ "type": "Feature", "properties": { "OBJECTID": 155, "LOCCODIGO": "05", "LOCNOMBRE": "Usme", "PVODIRECCI": "Carrera 14 B No. 76 - 33 Sur", "PVONSITIO": "Marichuela", "PVONOMBRE": "Colegio Distrital Miguel de Cervantes Saavedra Sede A", "PVONPUESTO": 8, "PVOCODIGO": "160010508", "PVONPUES_1": "8" }, "geometry": { "type": "Point", "coordinates": [ -74.116981875999954, 4.512414104000072 ] } },
{ "type": "Feature", "properties": { "OBJECTID": 156, "LOCCODIGO": "05", "LOCNOMBRE": "Usme", "PVODIRECCI": "Carrera 15 Este No. 76 - 59 Sur \nCarrera 14 Este No. 76 - 79 Sur *", "PVONSITIO": "La Flora", "PVONOMBRE": "Colegio Distrital Nueva Esperanza", "PVONPUESTO": 11, "PVOCODIGO": "160010511", "PVONPUES_1": "11" }, "geometry": { "type": "Point", "coordinates": [ -74.091209841999955, 4.513289875000055 ] } },
{ "type": "Feature", "properties": { "OBJECTID": 157, "LOCCODIGO": "05", "LOCNOMBRE": "Usme", "PVODIRECCI": "Calle 91 C Sur No. 2 A - 49", "PVONSITIO": "Los Comuneros", "PVONOMBRE": "Colegio Distrital Los Comuneros", "PVONPUESTO": 13, "PVOCODIGO": "160010513", "PVONPUES_1": "13" }, "geometry": { "type": "Point", "coordinates": [ -74.108748443999957, 4.498587950000058 ] } },
{ "type": "Feature", "properties": { "OBJECTID": 158, "LOCCODIGO": "05", "LOCNOMBRE": "Usme", "PVODIRECCI": "Calle 56 A Sur No. 3 A - 14", "PVONSITIO": "El Danubio Azul", "PVONOMBRE": "Colegio Distrital  Fabio Lozano Simonelli - Sede B", "PVONPUESTO": 15, "PVOCODIGO": "160010515", "PVONPUES_1": "15" }, "geometry": { "type": "Point", "coordinates": [ -74.115021438999975, 4.537765720000039 ] } },
{ "type": "Feature", "properties": { "OBJECTID": 159, "LOCCODIGO": "05", "LOCNOMBRE": "Usme", "PVODIRECCI": "Calle 73B Sur No. 14C - 16", "PVONSITIO": "La Fortaleza", "PVONOMBRE": "Colegio Distrital El Cortijo Vianey Sede B", "PVONPUESTO": 17, "PVOCODIGO": "160010517", "PVONPUES_1": "17" }, "geometry": { "type": "Point", "coordinates": [ -74.119160434999969, 4.517830869000022 ] } },
{ "type": "Feature", "properties": { "OBJECTID": 160, "LOCCODIGO": "05", "LOCNOMBRE": "Usme", "PVODIRECCI": "Calle 81 A Sur No. 6 - 40 Este \/ Transversal 1 Este  No. 85 - 86 Sur *", "PVONSITIO": "El Bosque", "PVONOMBRE": "Colegio Distrital Ofelia Uribe de Acosta", "PVONPUESTO": 18, "PVOCODIGO": "160010518", "PVONPUES_1": "18" }, "geometry": { "type": "Point", "coordinates": [ -74.10311553799994, 4.506018318000031 ] } },
{ "type": "Feature", "properties": { "OBJECTID": 161, "LOCCODIGO": "05", "LOCNOMBRE": "Usme", "PVODIRECCI": "Calle 97 F sur No. 6 F - 08 Este \/ Calle 97 Sur No. 6 F -  08 Este *", "PVONSITIO": "Villa Hermosa", "PVONOMBRE": "Colegio Distrital Villa Hermosa", "PVONPUESTO": 19, "PVOCODIGO": "160010519", "PVONPUES_1": "19" }, "geometry": { "type": "Point", "coordinates": [ -74.102320477999967, 4.493986247000066 ] } },
{ "type": "Feature", "properties": { "OBJECTID": 162, "LOCCODIGO": "05", "LOCNOMBRE": "Usme", "PVODIRECCI": "Calle 92 Sur No. 14 D - 87", "PVONSITIO": "Valles de Cafam", "PVONOMBRE": "Colegio Distrital Atabanzha", "PVONPUESTO": 20, "PVOCODIGO": "160010520", "PVONPUES_1": "20" }, "geometry": { "type": "Point", "coordinates": [ -74.118059415999937, 4.507653595000022 ] } },
{ "type": "Feature", "properties": { "OBJECTID": 163, "LOCCODIGO": "06", "LOCNOMBRE": "Tunjuelito", "PVODIRECCI": "Carrera 11 B No. 52 - 53 Sur\r\nCarrera 12 No. 52 - 60 Sur", "PVONSITIO": "Tunjuelito A", "PVONOMBRE": "Colegio Distrital Rufino José de Cuervo - Sede A", "PVONPUESTO": 1, "PVOCODIGO": "160010601", "PVONPUES_1": "1" }, "geometry": { "type": "Point", "coordinates": [ -74.124781504999987, 4.559472671000037 ] } },
{ "type": "Feature", "properties": { "OBJECTID": 164, "LOCCODIGO": "06", "LOCNOMBRE": "Tunjuelito", "PVODIRECCI": "Carrera 35  No. 51 B - 87 Sur", "PVONSITIO": "Fátima \"A\"", "PVONOMBRE": "Instituto Técnico Industrial Piloto - Sede A", "PVONPUESTO": 2, "PVOCODIGO": "160010602", "PVONPUES_1": "2" }, "geometry": { "type": "Point", "coordinates": [ -74.137989268999945, 4.585521978000031 ] } },
{ "type": "Feature", "properties": { "OBJECTID": 165, "LOCCODIGO": "06", "LOCNOMBRE": "Tunjuelito", "PVODIRECCI": "Carrera 8 No. 53 A - 44 Sur", "PVONSITIO": "Abraham Lincoln", "PVONOMBRE": "Colegio Distrital Cecilia de la Fuente Lleras - Sede B (Rufino José de Cuervo)", "PVONPUESTO": 3, "PVOCODIGO": "160010603", "PVONPUES_1": "3" }, "geometry": { "type": "Point", "coordinates": [ -74.123807513999964, 4.555324423000059 ] } },
{ "type": "Feature", "properties": { "OBJECTID": 166, "LOCCODIGO": "06", "LOCNOMBRE": "Tunjuelito", "PVODIRECCI": "Carrera 19 No. 50 A - 37 Sur", "PVONSITIO": "San Carlos", "PVONOMBRE": "Colegio Distrital San Carlos - Sede B", "PVONPUESTO": 4, "PVOCODIGO": "160010604", "PVONPUES_1": "4" }, "geometry": { "type": "Point", "coordinates": [ -74.128157404999968, 4.569460392000053 ] } },
{ "type": "Feature", "properties": { "OBJECTID": 167, "LOCCODIGO": "06", "LOCNOMBRE": "Tunjuelito", "PVODIRECCI": "Carrera 18 No. 56 A - 45 Sur", "PVONSITIO": "San Benito", "PVONOMBRE": "Colegio Distrital José Antonio Ricaurte", "PVONPUESTO": 5, "PVOCODIGO": "160010605", "PVONPUES_1": "5" }, "geometry": { "type": "Point", "coordinates": [ -74.13237462, 4.564414946000056 ] } },
{ "type": "Feature", "properties": { "OBJECTID": 168, "LOCCODIGO": "06", "LOCNOMBRE": "Tunjuelito", "PVODIRECCI": "Carrera 24 No. 49 - 86 Sur \/ \nCarrera 24 No. 48 C - 86 Sur *", "PVONSITIO": "El Tunal \"A\"", "PVONOMBRE": "Colegio Distrital Santiago Pérez - Sede A", "PVONPUESTO": 6, "PVOCODIGO": "160010606", "PVONPUES_1": "6" }, "geometry": { "type": "Point", "coordinates": [ -74.13192148, 4.575923139000054 ] } },
{ "type": "Feature", "properties": { "OBJECTID": 169, "LOCCODIGO": "06", "LOCNOMBRE": "Tunjuelito", "PVODIRECCI": "Calle 48 B Sur No. 28 - 75\r\nCarrera 29 No. 48 B - 36 Sur", "PVONSITIO": "El Carmen Sur \"A\"", "PVONOMBRE": "Colegio Distrital Rafaél Uribe Uribe - Sede B", "PVONPUESTO": 7, "PVOCODIGO": "160010607", "PVONPUES_1": "7" }, "geometry": { "type": "Point", "coordinates": [ -74.132310816999961, 4.582996852000065 ] } },
{ "type": "Feature", "properties": { "OBJECTID": 170, "LOCCODIGO": "06", "LOCNOMBRE": "Tunjuelito", "PVODIRECCI": "Carrera 25 No. 53 B - 32 Sur", "PVONSITIO": "San Vicente Ferrer", "PVONOMBRE": "Colegio Distrital Ciudad de Bogotá - Sede A", "PVONPUESTO": 8, "PVOCODIGO": "160010608", "PVONPUES_1": "8" }, "geometry": { "type": "Point", "coordinates": [ -74.138276584999971, 4.577185763000045 ] } },
{ "type": "Feature", "properties": { "OBJECTID": 171, "LOCCODIGO": "06", "LOCNOMBRE": "Tunjuelito", "PVODIRECCI": "Carrera 55 No. 49 - 25 Sur \/\r\nCarrera 55 No. 49 - 55 Sur\r\n", "PVONSITIO": "Venecia \"A\"", "PVONOMBRE": "Colegio Distrital Venecia - Sede A", "PVONPUESTO": 9, "PVOCODIGO": "160010609", "PVONPUES_1": "9" }, "geometry": { "type": "Point", "coordinates": [ -74.14358300899994, 4.59223242500002 ] } },
{ "type": "Feature", "properties": { "OBJECTID": 172, "LOCCODIGO": "06", "LOCNOMBRE": "Tunjuelito", "PVODIRECCI": "Carrera 59 No. 52 A - 30 Sur \/\r\nCarrera 61 B No. 52 A - 20 Sur *", "PVONSITIO": "Nuevo Muzu \"A\"", "PVONOMBRE": "Colegio Distrital Venecia - Sede B", "PVONPUESTO": 10, "PVOCODIGO": "160010610", "PVONPUES_1": "10" }, "geometry": { "type": "Point", "coordinates": [ -74.147599576999937, 4.586123155000053 ] } },
{ "type": "Feature", "properties": { "OBJECTID": 173, "LOCCODIGO": "06", "LOCNOMBRE": "Tunjuelito", "PVODIRECCI": "Calle 67 B Sur No. 63 - 19", "PVONSITIO": "Isla del Sol", "PVONOMBRE": "Colegio Distrital Isla del Sol", "PVONPUESTO": 11, "PVOCODIGO": "160010611", "PVONPUES_1": "11" }, "geometry": { "type": "Point", "coordinates": [ -74.152506800999959, 4.589211385000056 ] } },
{ "type": "Feature", "properties": { "OBJECTID": 174, "LOCCODIGO": "06", "LOCNOMBRE": "Tunjuelito", "PVODIRECCI": "Diagonal 49 Sur No. 48 - 71 \/ \nDiagonal 49 Sur No 51 D - 05 *", "PVONSITIO": "Venecia \"B\"", "PVONOMBRE": "Colegio Nuestra Señora de Fátima Policía Nacional\r\n", "PVONPUESTO": 12, "PVOCODIGO": "160010612", "PVONPUES_1": "12" }, "geometry": { "type": "Point", "coordinates": [ -74.13480057299995, 4.591309935000027 ] } },
{ "type": "Feature", "properties": { "OBJECTID": 175, "LOCCODIGO": "07", "LOCNOMBRE": "Bosa", "PVODIRECCI": "Calle 63 Sur No. 81 A - 30", "PVONSITIO": "Bosa", "PVONOMBRE": "Colegio Distrital Argelia", "PVONPUESTO": 1, "PVOCODIGO": "160010701", "PVONPUES_1": "1" }, "geometry": { "type": "Point", "coordinates": [ -74.185780130999945, 4.611585041000069 ] } },
{ "type": "Feature", "properties": { "OBJECTID": 176, "LOCCODIGO": "07", "LOCNOMBRE": "Bosa", "PVODIRECCI": "Calle 55 A No. 66 - 50 Sur", "PVONSITIO": "Villa del Río", "PVONOMBRE": "Salón Comunal Villa del Río", "PVONPUESTO": 2, "PVOCODIGO": "160010702", "PVONPUES_1": "2" }, "geometry": { "type": "Point", "coordinates": [ -74.157387367999945, 4.602225416000067 ] } },
{ "type": "Feature", "properties": { "OBJECTID": 177, "LOCCODIGO": "07", "LOCNOMBRE": "Bosa", "PVODIRECCI": "Calle 72 Sur No. 79 D - 33 \/ \nCalle 72 B Sur No. 79 D - 06 *", "PVONSITIO": "Carlos Albán", "PVONOMBRE": "Colegio Distrital Carlos Albán Holguín - Sede A", "PVONPUESTO": 5, "PVOCODIGO": "160010705", "PVONPUES_1": "5" }, "geometry": { "type": "Point", "coordinates": [ -74.197565333999989, 4.605714728000066 ] } },
{ "type": "Feature", "properties": { "OBJECTID": 178, "LOCCODIGO": "07", "LOCNOMBRE": "Bosa", "PVODIRECCI": "Carrera 88 C No. 66 A - 03 Sur", "PVONSITIO": "La Libertad", "PVONOMBRE": "Colegio Distrital José Francisco Socarrás", "PVONPUESTO": 6, "PVOCODIGO": "160010706", "PVONPUES_1": "6" }, "geometry": { "type": "Point", "coordinates": [ -74.194490576999954, 4.625125380000043 ] } },
{ "type": "Feature", "properties": { "OBJECTID": 179, "LOCCODIGO": "07", "LOCNOMBRE": "Bosa", "PVODIRECCI": "Calle 68 A Sur No. 80 H - 05", "PVONSITIO": "Piamonte", "PVONOMBRE": "Colegio Distrital Fernando Mazuera Villegas", "PVONPUESTO": 7, "PVOCODIGO": "160010707", "PVONPUES_1": "7" }, "geometry": { "type": "Point", "coordinates": [ -74.190748597999971, 4.606868318000068 ] } },
{ "type": "Feature", "properties": { "OBJECTID": 180, "LOCCODIGO": "07", "LOCNOMBRE": "Bosa", "PVODIRECCI": "Calle 63 Sur No. 77 M - 66", "PVONSITIO": "La Estación", "PVONOMBRE": "Colegio Colombo Japonés", "PVONPUESTO": 8, "PVOCODIGO": "160010708", "PVONPUES_1": "8" }, "geometry": { "type": "Point", "coordinates": [ -74.180810581999935, 4.60111936100003 ] } },
{ "type": "Feature", "properties": { "OBJECTID": 181, "LOCCODIGO": "07", "LOCNOMBRE": "Bosa", "PVODIRECCI": "Carrera 80 K No. 73 F - 29 Sur", "PVONSITIO": "Laureles", "PVONOMBRE": "Colegio Distrital Gran Colombiano - Sede B", "PVONPUESTO": 9, "PVOCODIGO": "160010709", "PVONPUES_1": "9" }, "geometry": { "type": "Point", "coordinates": [ -74.20015505899994, 4.609059013000035 ] } },
{ "type": "Feature", "properties": { "OBJECTID": 182, "LOCCODIGO": "07", "LOCNOMBRE": "Bosa", "PVODIRECCI": "Calle 70 A Sur No. 81 G - 13", "PVONSITIO": "Palestina", "PVONOMBRE": "Colegio Distrital Porfilio Barba Jacob", "PVONPUESTO": 10, "PVOCODIGO": "160010710", "PVONPUES_1": "10" }, "geometry": { "type": "Point", "coordinates": [ -74.193645801999935, 4.611871835000045 ] } },
{ "type": "Feature", "properties": { "OBJECTID": 183, "LOCCODIGO": "07", "LOCNOMBRE": "Bosa", "PVODIRECCI": "Calle 57 Sur No. 87 H - 03 \/ \nCalle 57 Sur No. 87 G - 35 *", "PVONSITIO": "Orlando Higuita", "PVONOMBRE": "Colegio Distrital Orlando Higuita Rojas", "PVONPUESTO": 11, "PVOCODIGO": "160010711", "PVONPUES_1": "11" }, "geometry": { "type": "Point", "coordinates": [ -74.186968117999982, 4.625445099000046 ] } },
{ "type": "Feature", "properties": { "OBJECTID": 184, "LOCCODIGO": "07", "LOCNOMBRE": "Bosa", "PVODIRECCI": "Calle 71 Bis Sur No. 77 I - 21", "PVONSITIO": "Bosa Paulo VI", "PVONOMBRE": "Colegio Distrital Paulo de Tarso - Sede B", "PVONPUESTO": 12, "PVOCODIGO": "160010712", "PVONPUES_1": "12" }, "geometry": { "type": "Point", "coordinates": [ -74.194433386999947, 4.599350291000064 ] } },
{ "type": "Feature", "properties": { "OBJECTID": 185, "LOCCODIGO": "07", "LOCNOMBRE": "Bosa", "PVODIRECCI": "Calle 52 A Sur No. 87 D - 45", "PVONSITIO": "Bosa Brasilia", "PVONOMBRE": "Colegio Distrital Brasilia", "PVONPUESTO": 13, "PVOCODIGO": "160010713", "PVONPUES_1": "13" }, "geometry": { "type": "Point", "coordinates": [ -74.181581768999934, 4.627958127000056 ] } },
{ "type": "Feature", "properties": { "OBJECTID": 186, "LOCCODIGO": "07", "LOCNOMBRE": "Bosa", "PVODIRECCI": "Carrera 86 No. 74 - 00 Sur", "PVONSITIO": "Islandia", "PVONOMBRE": "Colegio Distrital Alfonso Reyes Echandía\r\nAlfonso Reyes Echandía", "PVONPUESTO": 14, "PVOCODIGO": "160010714", "PVONPUES_1": "14" }, "geometry": { "type": "Point", "coordinates": [ -74.20035773099994, 4.616162771000063 ] } },
{ "type": "Feature", "properties": { "OBJECTID": 187, "LOCCODIGO": "10", "LOCNOMBRE": "Engativá", "PVODIRECCI": "Diagonal 74 B No. 87 - 40", "PVONSITIO": "Florencia", "PVONOMBRE": "Colegio Distrital Nidia Quintero de Turbay - Sede B", "PVONPUESTO": 24, "PVOCODIGO": "160011024", "PVONPUES_1": "24" }, "geometry": { "type": "Point", "coordinates": [ -74.105263315999935, 4.69956810900004 ] } },
{ "type": "Feature", "properties": { "OBJECTID": 188, "LOCCODIGO": "18", "LOCNOMBRE": "Rafael Uribe Uribe", "PVODIRECCI": "Calle 37 Sur No. 23 - 51", "PVONSITIO": "Central Quiroga", "PVONOMBRE": "Colegio Distrital Bravo Páez", "PVONPUESTO": 11, "PVOCODIGO": "160011811", "PVONPUES_1": "11" }, "geometry": { "type": "Point", "coordinates": [ -74.11908819699994, 4.579885019000073 ] } },
{ "type": "Feature", "properties": { "OBJECTID": 189, "LOCCODIGO": "18", "LOCNOMBRE": "Rafael Uribe Uribe", "PVODIRECCI": "Diagonal 32 B Sur No. 15 C - 25 \/ \nDiagonal 32 B Sur No. 13 B - 17 *", "PVONSITIO": "Las Colinas", "PVONOMBRE": "Colegio Distrital José Marti - Sede B", "PVONPUESTO": 13, "PVOCODIGO": "160011813", "PVONPUES_1": "13" }, "geometry": { "type": "Point", "coordinates": [ -74.112867734999952, 4.574369309000076 ] } },
{ "type": "Feature", "properties": { "OBJECTID": 190, "LOCCODIGO": "18", "LOCNOMBRE": "Rafael Uribe Uribe", "PVODIRECCI": "Carrera 10 No. 31 - 29 Sur", "PVONSITIO": "Country Sur", "PVONOMBRE": "Colegio Distrital Enrique Olaya Herrera", "PVONPUESTO": 14, "PVOCODIGO": "160011814", "PVONPUES_1": "14" }, "geometry": { "type": "Point", "coordinates": [ -74.102455409999948, 4.568172990000051 ] } },
{ "type": "Feature", "properties": { "OBJECTID": 191, "LOCCODIGO": "10", "LOCNOMBRE": "Engativá", "PVODIRECCI": "Calle 75 No. 90 - 75", "PVONSITIO": "Santa Rosita", "PVONOMBRE": "Colegio Distrital Nidia Quintero de Turbay - Sede A", "PVONPUESTO": 25, "PVOCODIGO": "160011025", "PVONPUES_1": "25" }, "geometry": { "type": "Point", "coordinates": [ -74.107891061999965, 4.701727638000023 ] } },
{ "type": "Feature", "properties": { "OBJECTID": 192, "LOCCODIGO": "10", "LOCNOMBRE": "Engativá", "PVODIRECCI": "Carrera 92 No. 82 - 20", "PVONSITIO": "Quirigua", "PVONOMBRE": "Colegio Distrital República de China", "PVONPUESTO": 26, "PVOCODIGO": "160011026", "PVONPUES_1": "26" }, "geometry": { "type": "Point", "coordinates": [ -74.103858439999954, 4.707612070000039 ] } },
{ "type": "Feature", "properties": { "OBJECTID": 193, "LOCCODIGO": "10", "LOCNOMBRE": "Engativá", "PVODIRECCI": "Carrera 82 A No. 82 D - 34 \/ Carrera 82 A No. 82 D - 40", "PVONSITIO": "La Española", "PVONOMBRE": "Colegio Distrital Jorge Gaitán Cortés - Sede A", "PVONPUESTO": 27, "PVOCODIGO": "160011027", "PVONPUES_1": "27" }, "geometry": { "type": "Point", "coordinates": [ -74.096538548999945, 4.703375863000076 ] } },
{ "type": "Feature", "properties": { "OBJECTID": 194, "LOCCODIGO": "10", "LOCNOMBRE": "Engativá", "PVODIRECCI": "Transversal 74 No. 81 C - 05", "PVONSITIO": "Minuto de Dios", "PVONOMBRE": "Colegio Minuto de Dios", "PVONPUESTO": 28, "PVOCODIGO": "160011028", "PVONPUES_1": "28" }, "geometry": { "type": "Point", "coordinates": [ -74.09033767699998, 4.698129252000058 ] } },
{ "type": "Feature", "properties": { "OBJECTID": 195, "LOCCODIGO": "10", "LOCNOMBRE": "Engativá", "PVODIRECCI": "Carrera 85 No. 88 - 99 \/ Carrera 85 No. 88 - 91", "PVONSITIO": "La Serena", "PVONOMBRE": "Colegio Distrital Simón Bolívar - Sede B", "PVONPUESTO": 29, "PVOCODIGO": "160011029", "PVONPUES_1": "29" }, "geometry": { "type": "Point", "coordinates": [ -74.094999032999965, 4.708631876000027 ] } },
{ "type": "Feature", "properties": { "OBJECTID": 196, "LOCCODIGO": "10", "LOCNOMBRE": "Engativá", "PVODIRECCI": "Calle 90 A No. 95 D - 56", "PVONSITIO": "Bachue", "PVONOMBRE": "Colegio Técnico Distrital Laureano Gómez - Sede B", "PVONPUESTO": 30, "PVOCODIGO": "160011030", "PVONPUES_1": "30" }, "geometry": { "type": "Point", "coordinates": [ -74.101828224999963, 4.718635634000066 ] } },
{ "type": "Feature", "properties": { "OBJECTID": 197, "LOCCODIGO": "10", "LOCNOMBRE": "Engativá", "PVODIRECCI": "Calle 83 No. 95 D - 04", "PVONSITIO": "Bachue II - Bochica I", "PVONOMBRE": "Sede Social Edificio Comunal Bochica 1", "PVONPUESTO": 32, "PVOCODIGO": "160011032", "PVONPUES_1": "32" }, "geometry": { "type": "Point", "coordinates": [ -74.105896126999937, 4.712395776000051 ] } },
{ "type": "Feature", "properties": { "OBJECTID": 198, "LOCCODIGO": "10", "LOCNOMBRE": "Engativá", "PVODIRECCI": "Calle 65 No. 112 A - 39", "PVONSITIO": "Villa Gladys", "PVONOMBRE": "Colegio Distrital Antonio Villavicencio - Sede A", "PVONPUESTO": 33, "PVOCODIGO": "160011033", "PVONPUES_1": "33" }, "geometry": { "type": "Point", "coordinates": [ -74.134306982999988, 4.705067449000069 ] } },
{ "type": "Feature", "properties": { "OBJECTID": 199, "LOCCODIGO": "10", "LOCNOMBRE": "Engativá", "PVODIRECCI": "Carrera 116 No. 80 A - 69 \nCalle 80 A No. 116 B - 10 *", "PVONSITIO": "Cortijo", "PVONOMBRE": "Parqueadero Supermanzana D - Portería 1", "PVONPUESTO": 34, "PVOCODIGO": "160011034", "PVONPUES_1": "34" }, "geometry": { "type": "Point", "coordinates": [ -74.122380738999937, 4.725671602000034 ] } },
{ "type": "Feature", "properties": { "OBJECTID": 200, "LOCCODIGO": "10", "LOCNOMBRE": "Engativá", "PVODIRECCI": "Carrera 77 A No. 67 - 17", "PVONSITIO": "San Marcos", "PVONOMBRE": "Colegio Distrital Antonio Nariño - Sede A", "PVONPUESTO": 35, "PVOCODIGO": "160011035", "PVONPUES_1": "35" }, "geometry": { "type": "Point", "coordinates": [ -74.103972133999946, 4.685961514000041 ] } },
{ "type": "Feature", "properties": { "OBJECTID": 201, "LOCCODIGO": "10", "LOCNOMBRE": "Engativá", "PVODIRECCI": "Transversal 76 B No. 51 A - 57 \/ Carrera 75 No. 51 A - 69", "PVONSITIO": "San Ignacio", "PVONOMBRE": "Colegio Distrital Marco Tulio Fernández - Sede D", "PVONPUESTO": 36, "PVOCODIGO": "160011036", "PVONPUES_1": "36" }, "geometry": { "type": "Point", "coordinates": [ -74.111707814999988, 4.673938038000074 ] } },
{ "type": "Feature", "properties": { "OBJECTID": 202, "LOCCODIGO": "10", "LOCNOMBRE": "Engativá", "PVODIRECCI": "Carrera 77 B No. 74 A - 02 \/ Carrera 77 B No. 74  - 02", "PVONSITIO": "Tabora", "PVONOMBRE": "Colegio Distrital Tabora - Sede A", "PVONPUESTO": 37, "PVOCODIGO": "160011037", "PVONPUES_1": "37" }, "geometry": { "type": "Point", "coordinates": [ -74.098087733999989, 4.693789436000031 ] } },
{ "type": "Feature", "properties": { "OBJECTID": 203, "LOCCODIGO": "10", "LOCNOMBRE": "Engativá", "PVODIRECCI": "Transversal 87 A No. 83 A - 48", "PVONSITIO": "Los Cerezos", "PVONOMBRE": "Polideportivo", "PVONPUESTO": 39, "PVOCODIGO": "160011039", "PVONPUES_1": "39" }, "geometry": { "type": "Point", "coordinates": [ -74.100150437999957, 4.706390361000047 ] } },
{ "type": "Feature", "properties": { "OBJECTID": 204, "LOCCODIGO": "10", "LOCNOMBRE": "Engativá", "PVODIRECCI": "Calle 83 No. 110 - 58", "PVONSITIO": "Ciudadela Colsubsidio", "PVONOMBRE": "Colegio Centro Educativo Integral Colsubsidio", "PVONPUESTO": 40, "PVOCODIGO": "160011040", "PVONPUES_1": "40" }, "geometry": { "type": "Point", "coordinates": [ -74.11391557099995, 4.720811409000021 ] } },
{ "type": "Feature", "properties": { "OBJECTID": 205, "LOCCODIGO": "10", "LOCNOMBRE": "Engativá", "PVODIRECCI": "Carrera 69 B No. 79 A - 42", "PVONSITIO": "Ferias II", "PVONOMBRE": "Colegio Distrital Juán del Corral - Sede A", "PVONPUESTO": 41, "PVOCODIGO": "160011041", "PVONPUES_1": "41" }, "geometry": { "type": "Point", "coordinates": [ -74.081900812999947, 4.686961488000065 ] } },
{ "type": "Feature", "properties": { "OBJECTID": 206, "LOCCODIGO": "10", "LOCNOMBRE": "Engativá", "PVODIRECCI": "Carrera 105 D No. 66 A - 15 \nCarrera 105 F No. 66 - 33 *", "PVONSITIO": "El Muelle", "PVONOMBRE": "Colegio Colsubsidio Las Mercedes", "PVONPUESTO": 42, "PVOCODIGO": "160011042", "PVONPUES_1": "42" }, "geometry": { "type": "Point", "coordinates": [ -74.125213837999979, 4.700289142000031 ] } },
{ "type": "Feature", "properties": { "OBJECTID": 207, "LOCCODIGO": "10", "LOCNOMBRE": "Engativá", "PVODIRECCI": "Calle 63 B No. 71 A - 16", "PVONSITIO": "La Cabaña", "PVONOMBRE": "Colegio Distrital Marco Tulio Fernández - Sede A", "PVONPUESTO": 43, "PVOCODIGO": "160011043", "PVONPUES_1": "43" }, "geometry": { "type": "Point", "coordinates": [ -74.10219663, 4.674296156000025 ] } },
{ "type": "Feature", "properties": { "OBJECTID": 208, "LOCCODIGO": "10", "LOCNOMBRE": "Engativá", "PVODIRECCI": "Calle 52 A Bis No. 78 - 35 \nTransversal 85 No. 52 A - 70 *", "PVONSITIO": "Santa Cecilia", "PVONOMBRE": "Salón Comunal", "PVONPUESTO": 45, "PVOCODIGO": "160011045", "PVONPUES_1": "45" }, "geometry": { "type": "Point", "coordinates": [ -74.11305605299998, 4.677248620000057 ] } },
{ "type": "Feature", "properties": { "OBJECTID": 209, "LOCCODIGO": "10", "LOCNOMBRE": "Engativá", "PVODIRECCI": "Calle 70 A No. 105 G - 23 \/ Calle 70 No. 105 F - 28", "PVONSITIO": "Plazuelas del Virrey", "PVONOMBRE": "Salón Comunal Urbanización Plazuelas del Virrey", "PVONPUESTO": 46, "PVOCODIGO": "160011046", "PVONPUES_1": "46" }, "geometry": { "type": "Point", "coordinates": [ -74.12330064799994, 4.704557273000034 ] } },
{ "type": "Feature", "properties": { "OBJECTID": 210, "LOCCODIGO": "10", "LOCNOMBRE": "Engativá", "PVODIRECCI": "Calle 64 F Bis No. 68 G - 16", "PVONSITIO": "Ciudad de Honda", "PVONOMBRE": "Colegio Distrital Instituto Técnico industrial Francisco José de Caldas - Sede B", "PVONPUESTO": 47, "PVOCODIGO": "160011047", "PVONPUES_1": "47" }, "geometry": { "type": "Point", "coordinates": [ -74.093499279999946, 4.67293255900006 ] } },
{ "type": "Feature", "properties": { "OBJECTID": 211, "LOCCODIGO": "10", "LOCNOMBRE": "Engativá", "PVODIRECCI": "Calle 70 C No. 111 - 15", "PVONSITIO": "Villa Constanza", "PVONOMBRE": "Salón Comunal", "PVONPUESTO": 49, "PVOCODIGO": "160011049", "PVONPUES_1": "49" }, "geometry": { "type": "Point", "coordinates": [ -74.128464960999963, 4.708291404000022 ] } },
{ "type": "Feature", "properties": { "OBJECTID": 212, "LOCCODIGO": "10", "LOCNOMBRE": "Engativá", "PVODIRECCI": "Calle 75 No. 110 A - 23", "PVONSITIO": "Mortiño", "PVONOMBRE": "Salón Comunal", "PVONPUESTO": 50, "PVOCODIGO": "160011050", "PVONPUES_1": "50" }, "geometry": { "type": "Point", "coordinates": [ -74.123700810999935, 4.713081742000043 ] } },
{ "type": "Feature", "properties": { "OBJECTID": 213, "LOCCODIGO": "11", "LOCNOMBRE": "Suba", "PVODIRECCI": "Carrera 90 No. 146 C - 40", "PVONSITIO": "Parque Fundacional de Suba", "PVONOMBRE": "Parque Fundacional de Suba", "PVONPUESTO": 1, "PVOCODIGO": "160011101", "PVONPUES_1": "1" }, "geometry": { "type": "Point", "coordinates": [ -74.083335846999944, 4.740931545000024 ] } },
{ "type": "Feature", "properties": { "OBJECTID": 214, "LOCCODIGO": "11", "LOCNOMBRE": "Suba", "PVODIRECCI": "Calle 128 Bis No. 93 - 07 \/ Calle 128 Bis No. 93 - 80", "PVONSITIO": "Villa Elisa Sede C - IED", "PVONOMBRE": "Colegio Villa Elisa Sedes C y D", "PVONPUESTO": 3, "PVOCODIGO": "160011103", "PVONPUES_1": "3" }, "geometry": { "type": "Point", "coordinates": [ -74.093316325999979, 4.722742548000042 ] } },
{ "type": "Feature", "properties": { "OBJECTID": 215, "LOCCODIGO": "11", "LOCNOMBRE": "Suba", "PVODIRECCI": "Carrera 94 C No. 129 A - 04", "PVONSITIO": "Gerardo Paredes - IED", "PVONOMBRE": "Colegio Distrital Gerardo Paredes - Sede A", "PVONPUESTO": 4, "PVOCODIGO": "160011104", "PVONPUES_1": "4" }, "geometry": { "type": "Point", "coordinates": [ -74.093628090999971, 4.72587057100003 ] } },
{ "type": "Feature", "properties": { "OBJECTID": 216, "LOCCODIGO": "11", "LOCNOMBRE": "Suba", "PVODIRECCI": "Carrera 111 A No. 139 - 88", "PVONSITIO": "Alberto Lleras Camargo - IED", "PVONOMBRE": "Colegio Distrital Alberto Lleras Camargo", "PVONPUESTO": 5, "PVOCODIGO": "160011105", "PVONPUES_1": "5" }, "geometry": { "type": "Point", "coordinates": [ -74.102119146999939, 4.744081447000042 ] } },
{ "type": "Feature", "properties": { "OBJECTID": 217, "LOCCODIGO": "11", "LOCNOMBRE": "Suba", "PVODIRECCI": "Carrera 128 A No. 139 - 13", "PVONSITIO": "Tibabuyes Universal Sede A - IED", "PVONOMBRE": "Colegio Distrital Tibabuyes Universal", "PVONPUESTO": 6, "PVOCODIGO": "160011106", "PVONPUES_1": "6" }, "geometry": { "type": "Point", "coordinates": [ -74.110575866999966, 4.746231617000035 ] } },
{ "type": "Feature", "properties": { "OBJECTID": 218, "LOCCODIGO": "11", "LOCNOMBRE": "Suba", "PVODIRECCI": "Calle 146 B No. 78 - 51", "PVONSITIO": "Casablanca Suba", "PVONOMBRE": "Colegio Distrital 21 Ángeles", "PVONPUESTO": 7, "PVOCODIGO": "160011107", "PVONPUES_1": "7" }, "geometry": { "type": "Point", "coordinates": [ -74.075855994999984, 4.738040369000032 ] } },
{ "type": "Feature", "properties": { "OBJECTID": 219, "LOCCODIGO": "11", "LOCNOMBRE": "Suba", "PVODIRECCI": "Calle 170 No. 54 A - 10", "PVONSITIO": "Villa Del Prado-Uni. Agraria", "PVONOMBRE": "UNIAGRARIA", "PVONPUESTO": 8, "PVOCODIGO": "160011108", "PVONPUES_1": "8" }, "geometry": { "type": "Point", "coordinates": [ -74.053504038999961, 4.753459328000076 ] } },
{ "type": "Feature", "properties": { "OBJECTID": 220, "LOCCODIGO": "11", "LOCNOMBRE": "Suba", "PVODIRECCI": "Carrera 53 No. 135 - 13", "PVONSITIO": "Prado Pinzón", "PVONOMBRE": "Colegio Distrital Anibal Fernández de Soto", "PVONPUESTO": 9, "PVOCODIGO": "160011109", "PVONPUES_1": "9" }, "geometry": { "type": "Point", "coordinates": [ -74.057387541999958, 4.722990696000068 ] } },
{ "type": "Feature", "properties": { "OBJECTID": 221, "LOCCODIGO": "11", "LOCNOMBRE": "Suba", "PVODIRECCI": "Calle 129 B No. 58 B - 45", "PVONSITIO": "Prado Ciudad Jardín", "PVONOMBRE": "Colegio Distrital Gustavo Morales Morales - Sede B", "PVONPUESTO": 10, "PVOCODIGO": "160011110", "PVONPUES_1": "10" }, "geometry": { "type": "Point", "coordinates": [ -74.069808683999952, 4.719289007000043 ] } },
{ "type": "Feature", "properties": { "OBJECTID": 222, "LOCCODIGO": "11", "LOCNOMBRE": "Suba", "PVODIRECCI": "Calle 102 A No. 70 - 40", "PVONSITIO": "Pontevedra", "PVONOMBRE": "Colegio Distrital Santa Rosa - Sede A", "PVONPUESTO": 12, "PVOCODIGO": "160011112", "PVONPUES_1": "12" }, "geometry": { "type": "Point", "coordinates": [ -74.074017921999939, 4.695967249000034 ] } },
{ "type": "Feature", "properties": { "OBJECTID": 223, "LOCCODIGO": "11", "LOCNOMBRE": "Suba", "PVODIRECCI": "Carrera 70 C No. 116 A - 12", "PVONSITIO": "San Nicolás - Agustiniano Norte", "PVONOMBRE": "Colegio Agustiniano Norte", "PVONPUESTO": 13, "PVOCODIGO": "160011113", "PVONPUES_1": "13" }, "geometry": { "type": "Point", "coordinates": [ -74.07214129099998, 4.700291338000056 ] } },
{ "type": "Feature", "properties": { "OBJECTID": 224, "LOCCODIGO": "11", "LOCNOMBRE": "Suba", "PVODIRECCI": "Carrera 46 No. 130 - 65", "PVONSITIO": "Prado Veraniego", "PVONOMBRE": "Colegio Distrital Prado Veraniego I - Sede A", "PVONPUESTO": 15, "PVOCODIGO": "160011115", "PVONPUES_1": "15" }, "geometry": { "type": "Point", "coordinates": [ -74.054173741999989, 4.717159632000062 ] } },
{ "type": "Feature", "properties": { "OBJECTID": 225, "LOCCODIGO": "11", "LOCNOMBRE": "Suba", "PVODIRECCI": "Carrera 53 A No. 128 - 51", "PVONSITIO": "Niza IX", "PVONOMBRE": "Colegio Distrital Prado Veraniego II - Sede B", "PVONPUESTO": 16, "PVOCODIGO": "160011116", "PVONPUES_1": "16" }, "geometry": { "type": "Point", "coordinates": [ -74.060673034999979, 4.713495869000042 ] } },
{ "type": "Feature", "properties": { "OBJECTID": 226, "LOCCODIGO": "11", "LOCNOMBRE": "Suba", "PVODIRECCI": "Calle 114 A No. 45 - 98", "PVONSITIO": "La Alhambra - Carulla", "PVONOMBRE": "Parqueadero Carulla Calle 116", "PVONPUESTO": 17, "PVOCODIGO": "160011117", "PVONPUES_1": "17" }, "geometry": { "type": "Point", "coordinates": [ -74.057485066999959, 4.698879248000026 ] } },
{ "type": "Feature", "properties": { "OBJECTID": 227, "LOCCODIGO": "11", "LOCNOMBRE": "Suba", "PVODIRECCI": "Transversal 56 No. 114 - 50", "PVONSITIO": "Puente Largo - Emmanuel D'alzon", "PVONOMBRE": "Colegio Emmanuel D'alzon", "PVONPUESTO": 18, "PVOCODIGO": "160011118", "PVONPUES_1": "18" }, "geometry": { "type": "Point", "coordinates": [ -74.067240039999945, 4.697970570000052 ] } },
{ "type": "Feature", "properties": { "OBJECTID": 228, "LOCCODIGO": "11", "LOCNOMBRE": "Suba", "PVODIRECCI": "Carrera 68 B No. 94 - 12", "PVONSITIO": "Floresta Norte - Julio Flórez", "PVONOMBRE": "Colegio Instituto Técnico Distrital Julio Flórez - Sede B", "PVONPUESTO": 19, "PVOCODIGO": "160011119", "PVONPUES_1": "19" }, "geometry": { "type": "Point", "coordinates": [ -74.077503069999977, 4.687168986000074 ] } },
{ "type": "Feature", "properties": { "OBJECTID": 229, "LOCCODIGO": "11", "LOCNOMBRE": "Suba", "PVODIRECCI": "Carrera 53 No.102 A - 77", "PVONSITIO": "Pasadena - Los Tres Elefantes", "PVONOMBRE": "Parqueadero los Tres Elefantes", "PVONPUESTO": 20, "PVOCODIGO": "160011120", "PVONPUES_1": "20" }, "geometry": { "type": "Point", "coordinates": [ -74.062931482999943, 4.691086081000037 ] } },
{ "type": "Feature", "properties": { "OBJECTID": 230, "LOCCODIGO": "11", "LOCNOMBRE": "Suba", "PVODIRECCI": "Calle 181 No. 51 A - 31", "PVONSITIO": "Nueva Zelandia", "PVONOMBRE": "Colegio Distrital Nueva Zelandia", "PVONPUESTO": 21, "PVOCODIGO": "160011121", "PVONPUES_1": "21" }, "geometry": { "type": "Point", "coordinates": [ -74.049539125999956, 4.759085622000043 ] } },
{ "type": "Feature", "properties": { "OBJECTID": 231, "LOCCODIGO": "11", "LOCNOMBRE": "Suba", "PVODIRECCI": "Carrera 92 No. 152 A - 52", "PVONSITIO": "El Salitre Sede C - IED", "PVONOMBRE": "Colegio Distrital El Salitre Suba - Sede C", "PVONPUESTO": 22, "PVOCODIGO": "160011122", "PVONPUES_1": "22" }, "geometry": { "type": "Point", "coordinates": [ -74.083054004999951, 4.749192491000031 ] } },
{ "type": "Feature", "properties": { "OBJECTID": 232, "LOCCODIGO": "11", "LOCNOMBRE": "Suba", "PVODIRECCI": "Calle 166 Bis  No. 54 C - 08  \/  Calle 166 No. 54 C - 08", "PVONSITIO": "San Cipriano", "PVONOMBRE": "Colegio Distrital Vista Bella - Sede B", "PVONPUESTO": 23, "PVOCODIGO": "160011123", "PVONPUES_1": "23" }, "geometry": { "type": "Point", "coordinates": [ -74.055031185999951, 4.748629041000072 ] } },
{ "type": "Feature", "properties": { "OBJECTID": 233, "LOCCODIGO": "11", "LOCNOMBRE": "Suba", "PVODIRECCI": "Transversal 60 No. 128 A - 51", "PVONSITIO": "Fundación Universi. Luis Amigó", "PVONOMBRE": "Fundación Universitaria Luis Amigó", "PVONPUESTO": 24, "PVOCODIGO": "160011124", "PVONPUES_1": "24" }, "geometry": { "type": "Point", "coordinates": [ -74.074020139999959, 4.716560253000068 ] } },
{ "type": "Feature", "properties": { "OBJECTID": 234, "LOCCODIGO": "11", "LOCNOMBRE": "Suba", "PVODIRECCI": "Calle 143 A No. 118 - 50", "PVONSITIO": "Don Bosco - IED", "PVONOMBRE": "Centro Educativo Distrital Don Bosco V", "PVONPUESTO": 26, "PVOCODIGO": "160011126", "PVONPUES_1": "26" }, "geometry": { "type": "Point", "coordinates": [ -74.107482146999985, 4.750413598000023 ] } },
{ "type": "Feature", "properties": { "OBJECTID": 235, "LOCCODIGO": "11", "LOCNOMBRE": "Suba", "PVODIRECCI": "Av. Calle 138 No. 58 D - 50", "PVONSITIO": "Colegio - Hijas de Cristo Rey", "PVONOMBRE": "Colegio Hijas de Cristo Rey", "PVONPUESTO": 27, "PVOCODIGO": "160011127", "PVONPUES_1": "27" }, "geometry": { "type": "Point", "coordinates": [ -74.067278993999935, 4.729443382000056 ] } },
{ "type": "Feature", "properties": { "OBJECTID": 236, "LOCCODIGO": "11", "LOCNOMBRE": "Suba", "PVODIRECCI": "Carrera 46 No. 152 - 46", "PVONSITIO": "Centro Comercial Mazurén", "PVONOMBRE": "Parqueadero Centro Comercial Mazurén", "PVONPUESTO": 28, "PVOCODIGO": "160011128", "PVONPUES_1": "28" }, "geometry": { "type": "Point", "coordinates": [ -74.050052020999942, 4.736490337000021 ] } },
{ "type": "Feature", "properties": { "OBJECTID": 237, "LOCCODIGO": "11", "LOCNOMBRE": "Suba", "PVODIRECCI": "Calle 183 No. 54 D - 25", "PVONSITIO": "Tejares Norte", "PVONOMBRE": "Universidad Pedagógica Nacional", "PVONPUESTO": 29, "PVOCODIGO": "160011129", "PVONPUES_1": "29" }, "geometry": { "type": "Point", "coordinates": [ -74.050269945999958, 4.762782869000034 ] } },
{ "type": "Feature", "properties": { "OBJECTID": 238, "LOCCODIGO": "11", "LOCNOMBRE": "Suba", "PVODIRECCI": "Calle 136 No. 136A - 12", "PVONSITIO": "Colegio Celestin Freinet", "PVONOMBRE": "Colegio Celestin Freinet", "PVONPUESTO": 30, "PVOCODIGO": "160011130", "PVONPUES_1": "30" }, "geometry": { "type": "Point", "coordinates": [ -74.114335325999946, 4.74543378900006 ] } },
{ "type": "Feature", "properties": { "OBJECTID": 239, "LOCCODIGO": "11", "LOCNOMBRE": "Suba", "PVODIRECCI": "Carrera 100 A No. 130 - 18", "PVONSITIO": "Alvaro Gomez Hurtado Sede A - IED", "PVONOMBRE": "Colegio Distrital Álvaro Gómez Hurtado", "PVONPUESTO": 31, "PVOCODIGO": "160011131", "PVONPUES_1": "31" }, "geometry": { "type": "Point", "coordinates": [ -74.0968505, 4.730444498000054 ] } },
{ "type": "Feature", "properties": { "OBJECTID": 240, "LOCCODIGO": "11", "LOCNOMBRE": "Suba", "PVODIRECCI": "Calle 144 C No. 141 A - 51", "PVONSITIO": "Delia Zapata Olivella - IED", "PVONOMBRE": "Colegio Distrital Delia Zapata Olivella", "PVONPUESTO": 32, "PVOCODIGO": "160011132", "PVONPUES_1": "32" }, "geometry": { "type": "Point", "coordinates": [ -74.113309652999988, 4.753137338000045 ] } },
{ "type": "Feature", "properties": { "OBJECTID": 241, "LOCCODIGO": "11", "LOCNOMBRE": "Suba", "PVODIRECCI": "Calle 128 B No. 87 D - 05", "PVONSITIO": "Hunza Sede B - IED", "PVONOMBRE": "Colegio Distrital Hunza - Sede B", "PVONPUESTO": 33, "PVOCODIGO": "160011133", "PVONPUES_1": "33" }, "geometry": { "type": "Point", "coordinates": [ -74.087255615999936, 4.720686158000035 ] } },
{ "type": "Feature", "properties": { "OBJECTID": 242, "LOCCODIGO": "11", "LOCNOMBRE": "Suba", "PVODIRECCI": "Calle 132 C No. 92 A - 71", "PVONSITIO": "Villa Elisa Sede A - IED", "PVONOMBRE": "Colegio Distrital Villa Elisa - Sede A", "PVONPUESTO": 34, "PVOCODIGO": "160011134", "PVONPUES_1": "34" }, "geometry": { "type": "Point", "coordinates": [ -74.087854690999961, 4.732343928000034 ] } },
{ "type": "Feature", "properties": { "OBJECTID": 243, "LOCCODIGO": "11", "LOCNOMBRE": "Suba", "PVODIRECCI": "Calle 131 A No. 125 - 39", "PVONSITIO": "República Dominicana Sede A - IED", "PVONOMBRE": "Colegio Distrital República Dominicana", "PVONPUESTO": 35, "PVOCODIGO": "160011135", "PVONPUES_1": "35" }, "geometry": { "type": "Point", "coordinates": [ -74.108999391999987, 4.738964392000071 ] } },
{ "type": "Feature", "properties": { "OBJECTID": 244, "LOCCODIGO": "11", "LOCNOMBRE": "Suba", "PVODIRECCI": "Carrera 151 A No. 132 A - 16", "PVONSITIO": "La Toscana Lisboa Sede B - IED", "PVONOMBRE": "Colegio Distrital Lisboa - Sede B", "PVONPUESTO": 36, "PVOCODIGO": "160011136", "PVONPUES_1": "36" }, "geometry": { "type": "Point", "coordinates": [ -74.121655191999935, 4.743313741000065 ] } },
{ "type": "Feature", "properties": { "OBJECTID": 245, "LOCCODIGO": "11", "LOCNOMBRE": "Suba", "PVODIRECCI": "Calle 222 No. 55 - 09", "PVONSITIO": "Universidad UDCA", "PVONOMBRE": "Universidad UDCA", "PVONPUESTO": 37, "PVOCODIGO": "160011137", "PVONPUES_1": "37" }, "geometry": { "type": "Point", "coordinates": [ -74.04886565299995, 4.80022380500003 ] } },
{ "type": "Feature", "properties": { "OBJECTID": 246, "LOCCODIGO": "11", "LOCNOMBRE": "Suba", "PVODIRECCI": "Calle 129 No. 55 - 55", "PVONSITIO": "Prado Sur", "PVONOMBRE": "Colegio Distrital Gustavo Morales Morales", "PVONPUESTO": 39, "PVOCODIGO": "160011139", "PVONPUES_1": "39" }, "geometry": { "type": "Point", "coordinates": [ -74.064355537999973, 4.716510669000058 ] } },
{ "type": "Feature", "properties": { "OBJECTID": 247, "LOCCODIGO": "11", "LOCNOMBRE": "Suba", "PVODIRECCI": "Calle 147 No.101 - 56 \/\r\nCarrera 101 No.147 – 21 *\r\n", "PVONSITIO": "Centro Comercial Fiesta Suba", "PVONOMBRE": "Vía Pública", "PVONPUESTO": 40, "PVOCODIGO": "160011140", "PVONPUES_1": "40" }, "geometry": { "type": "Point", "coordinates": [ -74.092692213999953, 4.74445471000007 ] } },
{ "type": "Feature", "properties": { "OBJECTID": 248, "LOCCODIGO": "11", "LOCNOMBRE": "Suba", "PVODIRECCI": "Carrera 103 B No. 153 - 01", "PVONSITIO": "Nicolás Buenaventura - IED", "PVONOMBRE": "Colegio Distrital Nicolás Buenaventura", "PVONPUESTO": 41, "PVOCODIGO": "160011141", "PVONPUES_1": "41" }, "geometry": { "type": "Point", "coordinates": [ -74.090601923999941, 4.755537482000022 ] } },
{ "type": "Feature", "properties": { "OBJECTID": 249, "LOCCODIGO": "12", "LOCNOMBRE": "Barrios Unidos", "PVODIRECCI": "Carrera 47 A con Calle 94 Cancha Parque \/ Carrera 48 No. 94 - 02 *", "PVONSITIO": "La Castellana", "PVONOMBRE": "Cancha detrás de Olimpica", "PVONPUESTO": 1, "PVOCODIGO": "160011201", "PVONPUES_1": "1" }, "geometry": { "type": "Point", "coordinates": [ -74.060488519999979, 4.682589826000026 ] } },
{ "type": "Feature", "properties": { "OBJECTID": 250, "LOCCODIGO": "12", "LOCNOMBRE": "Barrios Unidos", "PVODIRECCI": "Tranversal 60 No. 95 - 51", "PVONSITIO": "Rionegro", "PVONOMBRE": "Colegio Distrital Faustino Sarmiento - Sede A", "PVONPUESTO": 2, "PVOCODIGO": "160011202", "PVONPUES_1": "2" }, "geometry": { "type": "Point", "coordinates": [ -74.066497248999951, 4.684978809000029 ] } },
{ "type": "Feature", "properties": { "OBJECTID": 251, "LOCCODIGO": "12", "LOCNOMBRE": "Barrios Unidos", "PVODIRECCI": "Carrera. 50 No. 90 - 50", "PVONSITIO": "Patria", "PVONOMBRE": "Fundación Educativa Santa María", "PVONPUESTO": 3, "PVOCODIGO": "160011203", "PVONPUES_1": "3" }, "geometry": { "type": "Point", "coordinates": [ -74.065172553999957, 4.679075652000051 ] } },
{ "type": "Feature", "properties": { "OBJECTID": 252, "LOCCODIGO": "12", "LOCNOMBRE": "Barrios Unidos", "PVODIRECCI": "Carrera 54 No. 78 - 85", "PVONSITIO": "Gaitán", "PVONOMBRE": "Colegio Distrital Rafaél Bernal Jiménez - Sede B", "PVONPUESTO": 4, "PVOCODIGO": "160011204", "PVONPUES_1": "4" }, "geometry": { "type": "Point", "coordinates": [ -74.072451978999936, 4.674229417000049 ] } },